순번,시도본부,119안전센터명,주소,전화번호,FAX,위도,경도
1,서울특별시,개포119안전센터,서울특별시 강남구 논현로 10길 19 (개포동),02-577-2540,02-529-1119,37.474698570,127.049894869
2,서울특별시,삼성119안전센터,서울특별시 강남구 테헤란로 629 (삼성동),02-6981-7556,02-539-9008,37.510278466,127.066833791
3,서울특별시,세곡119안전센터,서울특별시 강남구 밤고개로 268 (율현동),02-451-0882,02-451-0883,37.470403715,127.107231719
4,서울특별시,수서119안전센터,서울특별시 강남구 광평로31길 6 (수서동),02-445-9019,02-451-0019,37.484927407,127.092845325
5,서울특별시,역삼119안전센터,서울특별시 강남구 역삼로 236 (역삼동),02-557-0109,02-508-1193,37.497137885,127.042443761
6,서울특별시,영동119안전센터,서울특별시 강남구 도산대로 320 (논현동),02-517-5119,02-542-0119,37.522142749,127.036934356
7,서울특별시,강일119안전센터,서울특별시 강동구 고덕로98길 22 (강일동),02-6981-7790,02-429-0121,37.557340671,127.179684489
8,서울특별시,고덕119안전센터,서울특별시 강동구 양재대로156길 133 (고덕동),02-441-0119,02-426-0431,37.557142141,127.151872206
9,서울특별시,길동119안전센터,서울특별시 강동구 천중로 215 (길동),02-486-1727,02-487-6119,37.540997704,127.144447453
10,서울특별시,성내119안전센터,서울특별시 강동구 성내로 39 (성내동),02-6981-7750,02-6981-7717,37.529549282,127.124849423
11,서울특별시,암사119안전센터,서울특별시 강동구 올림픽로 815 (암사동),02-3426-2119,02-429-0427,37.553982848,127.128633465
12,서울특별시,천호119안전센터,서울특별시 강동구 진황도로 37 (천호동),02-476-0119,02-474-1721,37.538631246,127.131356396
13,서울특별시,미아119안전센터,서울특별시 강북구 도봉로 125 (미아동),02-983-9111,02-981-0119,37.620021979,127.028294603
14,서울특별시,번동119안전센터,서울특별시 강북구 한천로 911 (번동),02-6946-0250,02-6946-0229,37.633079172,127.038150105
15,서울특별시,삼각산119안전센터,서울특별시 강북구 솔샘로 208 (미아동),02-983-5119,02-984-5119,37.619868649,127.015507497
16,서울특별시,우이119안전센터,서울특별시 강북구 삼각산로 111 (수유동),02-904-0119,02-998-9116,37.640907925,127.016551685
17,서울특별시,개화119안전센터,서울특별시 강서구 개화동로19길 8 (개화동),02-6981-5185,02-2187-8248,37.574993732,126.803148485
18,서울특별시,등촌119안전센터,서울특별시 강서구 양천로 550 (등촌동),02-6981-5120,02-2187-8244,37.558246341,126.860047026
19,서울특별시,마곡119안전센터,서울특별시 강서구 마곡서로 9 (마곡동),02-6981-5190,02-2187-8249,37.555951408,126.820731027
20,서울특별시,발산119안전센터,서울특별시 강서구 강서로 329 (내발산동),02-6981-5175,02-2187-8246,37.555260680,126.836859837
21,서울특별시,방화119안전센터,서울특별시 강서구 금낭화로26길 10 (방화동),02-6981-5180,02-2187-8247,37.579796192,126.814284181
22,서울특별시,화곡119안전센터,서울특별시 강서구 까치산로 49 (화곡동),02-6981-5170,02-2187-8245,37.543662528,126.845219339
23,서울특별시,관악119안전센터,서울특별시 관악구 관악로 97 (봉천동),02-6981-8340,02-877-4119,37.473640671,126.952507911
24,서울특별시,난곡119안전센터,서울특별시 관악구 난곡로 243 (신림동),02-859-0119,02-839-3119,37.475678930,126.916081083
25,서울특별시,봉천119안전센터,서울특별시 관악구 은천로 54 (봉천동),02-886-0119,02-877-2143,37.485949097,126.941113859
26,서울특별시,신림119안전센터,서울특별시 관악구 봉천로 202 (신림동),02-874-0119,02-878-2069,37.489634319,126.923986706
27,서울특별시,구의119안전센터,서울특별시 광진구 광나루로 480 (구의동),02-6981-6768,02-454-0118,37.544742461,127.082810481
28,서울특별시,능동119안전센터,서울특별시 광진구 능동로 242 (능동),02-6981-6781,02-3436-8119,37.551691408,127.077020319
29,서울특별시,중곡119안전센터,서울특별시 광진구 용마산로 150 (중곡동),02-6981-6791,02-2201-4119,37.566949370,127.086646141
30,서울특별시,고일119안전센터,서울특별시 구로구 경인로 408 (고척동),02-2619-0119,02-2619-0121,37.497972165,126.865629440
31,서울특별시,고척119안전센터,서울특별시 구로구 고척로 195 (고척동),02-2618-3104,02-2616-0119,37.504919272,126.854882073
32,서울특별시,공단119안전센터,서울특별시 구로구 디지털로34길 56 (구로동),02-855-0119,02-837-7119,37.484223439,126.898432739
33,서울특별시,구로119안전센터,서울특별시 구로구 구로동로 175 (구로동),02-855-1119,02-864-0119,37.494251427,126.882546518
34,서울특별시,수궁119안전센터,서울특별시 구로구 오리로 1285 (궁동),02-2685-6119,02-2613-0119,37.496264850,126.829543076
35,서울특별시,신도림119안전센터,서울특별시 구로구 경인로59길 57 (신도림동),02-2671-8119,02-2671-2119,37.507347545,126.881196420
36,서울특별시,금천119안전센터,서울특별시 금천구 시흥대로 342(독산동),02-6981-6541,02-2187-8384,37.464020452,126.897885730
37,서울특별시,시흥119안전센터,서울특별시 금천구 시흥대로 45길 31(시흥동),02-6981-6551,02-2187-8385,37.448544107,126.900483610
38,서울특별시,공릉119안전센터,서울특별시 노원구 화랑로 482 (공릉동),02-6981-6979,02-975-0616,37.619071408,127.080696311
39,서울특별시,상계119안전센터,서울특별시 노원구 노원로26길 111 (상계동),02-6981-6969,02-3392-2736,37.655044998,127.071614585
40,서울특별시,수락119안전센터,서울특별시 노원구 동일로 1694 (상계동),02-6981-6999,02-939-6119,37.679682128,127.055735440
41,서울특별시,월계119안전센터,서울특별시 노원구 월계로 323 (월계동),02-6981-6989,02-994-0397,37.628807641,127.056392411
42,서울특별시,하계119안전센터,서울특별시 노원구 한글비석로 1길 8 (하계동),02-6981-6940,02-979-6119,37.638281431,127.071052116
43,서울특별시,도봉119안전센터,서울특별시 도봉구 노해로 152 (도봉동),02-6981-8182,02-2187-8277,37.648202251,127.026817883
44,서울특별시,방학119안전센터,서울특별시 도봉구 도봉로 666 (방학동),02-6981-8180,02-2187-8276,37.664211813,127.044046601
45,서울특별시,쌍문119안전센터,서울특별시 도봉구 노해로 152 (쌍문동),02-6981-8186,02-2187-8279,37.648202251,127.026817883
46,서울특별시,창동119안전센터,서울특별시 도봉구 해등로 25 (창동),02-6981-8184,02-2187-8278,37.646767456,127.043735669
47,서울특별시,용두119안전센터,서울특별시 동대문구 왕산로 76 (용두동),02-6942-1371,02-2187-8188,37.577864743,127.031736569
48,서울특별시,장안119안전센터,서울특별시 동대문구 장한로 34 (장안동),02-6942-1352,02-2187-8184,37.564041016,127.066711997
49,서울특별시,전농119안전센터,서울특별시 동대문구 황물로 3 (전농동),02-6942-1366,02-2187-8187,37.576322573,127.046018193
50,서울특별시,청량리119안전센터,서울특별시 동대문구 왕산로 299 (청량리동),02-6942-1361,02-2187-8186,37.587148971,127.052311960
51,서울특별시,휘경119안전센터,서울특별시 동대문구 망우로 106 (휘경동),02-6942-1376,02-2187-8189,37.590660566,127.065141131
52,서울특별시,노량진119안전센터,서울특별시 동작구 노량진로 187 (노량진동),02-6913-7881,02-813-5119,37.513669970,126.946968900
53,서울특별시,동작119안전센터,서울특별시 동작구 여의대방로16길 55 (신대방동),02-6913-7871,02-847-0900,37.494720426,126.917808954
54,서울특별시,백운119안전센터,서울특별시 동작구 사당로 63 (상도동),02-6913-7895,02-816-0709,37.494805662,126.961589102
55,서울특별시,상도119안전센터,서울특별시 동작구 국사봉1길 17 (상도동),02-6913-7888,02-825-0693,37.499035277,126.929469132
56,서울특별시,공덕119안전센터,서울특별시 마포구 만리재옛길 82 (공덕동),02-3274-0976,02-706-0119,37.550047435,126.959748083
57,서울특별시,상암119안전센터,서울특별시 마포구 월드컵로 42길 34 (상암동),02-309-5119,02-303-4119,37.579928641,126.881231961
58,서울특별시,서교119안전센터,서울특별시 마포구 양화로 60 (서교동),02-3143-2119,02-324-0119,37.550281942,126.915555965
59,서울특별시,성산119안전센터,서울특별시 마포구 월드컵북로 240 (성산동),02-304-0119,02-309-0096,37.570606726,126.903059720
60,서울특별시,신수119안전센터,서울특별시 마포구 창전로 76 (신수동),02-6981-7930,02-3275-2119,37.549393840,126.933203301
61,서울특별시,염리119안전센터,서울특별시 마포구 토정로 37길 27 (염리동),02-713-0965,02-713-0119,37.541728407,126.945571286
62,서울특별시,북가좌119안전센터,서울특별시 서대문구 증가로 242 (북가좌동),02-6981-5539,02-6981-5537,37.582870695,126.912989961
63,서울특별시,북아현119안전센터,서울특별시 서대문구 북아현로 37 (북아현동),02-6981-5559,02-6981-5557,37.560668234,126.955750969
64,서울특별시,연희119안전센터,서울특별시 서대문구 연희로 182 (연희동),02-6981-5520,02-6981-5527,37.573227418,126.935905583
65,서울특별시,홍은119안전센터,서울특별시 서대문구 홍은중앙로 83 (홍은동),02-6981-5549,02-6981-5547,37.598721355,126.947019441
66,서울특별시,반포119안전센터,서울특별시 서초구 사평대로 67 (반포동),02-6981-5939,02-599-0119,37.498783812,126.992021836
67,서울특별시,방배119안전센터,서울특별시 서초구 남부순환로 2155 (방배동),02-6981-5970,02-523-9119,37.475505514,126.988209289
68,서울특별시,서초119안전센터,서울특별시 서초구 효령로 400 (서초동),02-6981-5985,02-3486-2729,37.488027711,127.027596753
69,서울특별시,양재119안전센터,서울특별시 서초구 동산로 9 (양재동),02-6981-5980,02-508-1193,37.469468718,127.040824138
70,서울특별시,우면119안전센터,서울특별시 서초구 남부순환로340길 49 (서초동),02-6981-5995,02-598-3063,37.479572554,127.021882776
71,서울특별시,잠원119안전센터,서울특별시 서초구 서초중앙로29길 6 (반포동),02-6981-5990,02-594-3119,37.499070754,127.011601334
72,서울특별시,금호119안전센터,서울특별시 성동구 난계로 19 (금호동1가),02-2622-1771,02-2622-1779,37.554105848,127.024344615
73,서울특별시,성수119안전센터,서울특별시 성동구 뚝섬로 452 (성수동2가),02-2622-1751,02-2622-1759,37.537164276,127.060660119
74,서울특별시,왕십리119안전센터,서울특별시 성동구 고산자로 249 (도선동),02-2622-1761,02-2622-1769,37.562075133,127.035492522
75,서울특별시,행당119안전센터,서울특별시 성동구 살곶이길 331(행당동),02-2622-1740,02-2622-1749,37.553878875,127.039519765
76,서울특별시,길음119안전센터,서울특별시 성북구 정릉로 321 (길음동),02-6981-7372,02-2187-8208,37.602822987,127.019209049
77,서울특별시,돈암119안전센터,서울특별시 성북구 보문로 192 (삼선동4가),02-6981-7361,02-2187-8207,37.590990082,127.014442641
78,서울특별시,장위119안전센터,서울특별시 성북구 한천로 662-8 (장위동),02-6981-7383,02-2187-8209,37.617439370,127.057046953
79,서울특별시,종암119안전센터,서울특별시 성북구 종암로 27길 3 (종암동),02-6981-7351,02-2187-8205,37.602439541,127.031685855
80,서울특별시,가락119안전센터,서울특별시 송파구 양재대로 932 (가락동),02-6981-5395,02-406-1084,37.491358307,127.111421715
81,서울특별시,거여119안전센터,서울특별시 송파구 마천로 329 (마천동),02-6981-5362,02-404-7119,37.494193169,127.151840894
82,서울특별시,마천119안전센터,서울특별시 송파구 오금로51길 56 (마천동),02-6981-5343,02-3401-3119,37.499870771,127.142628059
83,서울특별시,방이119안전센터,서울특별시 송파구 강동대로 286 (방이동),02-6981-5372,02-409-8119,37.519786776,127.136545511
84,서울특별시,잠실119안전센터,서울특별시 송파구 석촌호수로 151 (잠실동),02-6981-5379,02-3431-2415,37.507316586,127.093893034
85,서울특별시,종합운동장119안전센터,서울특별시 송파구 올림픽로 25 (잠실동),02-6981-5387,02-417-0119,37.513460845,127.076571285
86,서울특별시,목동119안전센터,서울특별시 양천구 안양천로 1139 (목동),02-6981-8765,02-2644-4727,37.542775170,126.883558238
87,서울특별시,신월119안전센터,서울특별시 양천구 남부순환로 448 (신월동),02-6981-8790,02-2691-4189,37.527913225,126.833084198
88,서울특별시,신정119안전센터,서울특별시 양천구 신월로 268 (신정동),02-6981-8760,02-2601-0112,37.521775108,126.850956100
89,서울특별시,신트리119안전센터,서울특별시 양천구 신정로 238 (신정동),02-6981-8795,02-2691-1134,37.510600544,126.848001809
90,서울특별시,양천119안전센터,서울특별시 양천구 목동서로 180 (목동),02-6981-8750,02-2651-6119,37.530272770,126.872450314
91,서울특별시,당산119안전센터,서울특별시 영등포구 양평로 70-1 (당산동6가),02-2633-0119,02-2672-7118,37.535501948,126.899192275
92,서울특별시,대림119안전센터,서울특별시 영등포구 도림로 212 (신길동),02-846-0119,02-831-0119,37.497305340,126.904048445
93,서울특별시,신길119안전센터,서울특별시 영등포구 영등포로84길 31 (신길동),02-841-0119,02-834-0119,37.510456310,126.922201235
94,서울특별시,여의도119안전센터,서울특별시 영등포구 의사당대로 162 (여의도동),02-783-0119,02-785-1191,37.517227617,126.927972344
95,서울특별시,영등포119안전센터,서울특별시 영등포구 문래로 197 (영등포동4가),02-6981-7150,02-6981-7170,37.518453984,126.904180833
96,서울특별시,서빙고119안전센터,서울특별시 용산구 서빙고로67길 7 (서빙고동),02-6943-1570,02-796-1197,37.520813308,126.995020354
97,서울특별시,이촌119안전센터,서울특별시 용산구 이촌로2가길 1 (이촌동),02-6943-1560,02-712-0119,37.530052339,126.953422218
98,서울특별시,이태원119안전센터,서울특별시 용산구 이태원로 196 (이태원동),02-6943-1540,02-798-0119,37.534367809,126.995807583
99,서울특별시,한강로119안전센터,서울특별시 용산구 한강대로 167 (한강로2가),02-6943-1520,02-792-5117,37.534118559,126.971515051
100,서울특별시,후암119안전센터,서울특별시 용산구 후암로 34 (후암동),02-6943-1550,02-773-1179,37.548943722,126.977878106
101,서울특별시,녹번119안전센터,서울특별시 은평구 은평로 245 (녹번동),02-6981-6171,02-382-0667,37.601102063,126.935149745
102,서울특별시,수색119안전센터,서울특별시 은평구 수색로 320 (수색동),02-6981-6191,02-307-0041,37.585267560,126.889905814
103,서울특별시,역촌119안전센터,서울특별시 은평구 갈현로 80 (역촌동),02-6981-6181,02-356-0674,37.604982439,126.910670446
104,서울특별시,진관119안전센터,서울특별시 은평구 통일로 962 (진관동),02-6981-6151,02-389-0674,37.628756582,126.919788046
105,서울특별시,세종로119안전센터,서울특별시 종로구 율곡로 78(운니동),02-734-0119,02-723-8119,37.576777177,126.987642786
106,서울특별시,숭인119안전센터,서울특별시 종로구 숭인동길 63 (숭인동),02-929-0921,02-929-5289,37.577758937,127.021700692
107,서울특별시,신교119안전센터,서울특별시 종로구 자하문로 93 (신교동),02-737-8119,02-736-0119,37.584292949,126.970021474
108,서울특별시,신영119안전센터,서울특별시 종로구 진흥로 477 (신영동),02-391-0119,02-395-2119,37.605785515,126.960857804
109,서울특별시,연건119안전센터,서울특별시 종로구 대학로 91 (연건동),02-747-8119,02-762-0119,37.579428095,127.001840997
110,서울특별시,종로119안전센터,서울특별시 종로구 돈화문로 30 (묘동),02-747-7119,02-764-0119,37.571268155,126.992233428
111,서울특별시,망우119안전센터,서울특별시 중랑구 용마산로 524 (망우동),02-6981-8972,02-432-0119,37.597716189,127.100582414
112,서울특별시,면목119안전센터,서울특별시 중랑구 동일로 475 (면목동),02-6981-8962,02-435-0119,37.572821239,127.079869915
113,서울특별시,신내119안전센터,서울특별시 중랑구 신내로 183 (신내동),02-6981-8850,02-3422-1195,37.615387246,127.094855279
114,서울특별시,중화119안전센터,서울특별시 중랑구 동일로 783 (중화동),02-6981-8982,02-2207-0119,37.600461633,127.079329101
115,서울특별시,무학119안전센터,서울특별시 중구 퇴계로 394(무학동),02-6981-0159,02-2237-0693,37.564826109,127.015377774
116,서울특별시,신당119안전센터,서울특별시 중구 다산로8길 2 (신당동),02-6981-0199,02-2254-0119,37.552926511,127.009638760
117,서울특별시,을지로119안전센터,서울특별시 중구 을지로45길 43 (신당동),02-6981-0175,02-2235-0698,37.566727134,127.012011204
118,서울특별시,충무로119안전센터,서울특별시 중구 충무로 11 (충무로3가),02-6981-0183,02-2285-1122,37.562159559,126.992912418
119,서울특별시,회현119안전센터,서울특별시 중구 소공로 30 (회현동2가),02-6981-0191,02-753-0119,37.558173523,126.983368442
120,부산광역시,강동119안전센터,부산광역시 강서구 제도로 696(강동동),051-760-6042,051-760-6049,35.174717825,128.916022663
121,부산광역시,녹산119안전센터,부산광역시 강서구 녹산산단361로 9(송정동),051-760-6012,051-760-6019,35.089674793,128.856791247
122,부산광역시,대저119안전센터,부산광역시 강서구 대저로221번길 25(대저1동),051-760-6032,051-760-6039,35.215728521,128.976883962
123,부산광역시,신호119안전센터,부산광역시 강서구 신호산단4로 62(신호동),051-760-6022,051-760-6029,35.085473745,128.879547916
124,부산광역시,지사119안전센터,부산광역시 강서구 과학산단로333번길 3(지사동),051-760-6053,051-760-6059,35.148585858,128.833201063
125,부산광역시,남산119안전센터,부산광역시 금정구 두실로 46(남산동),051-760-6732,051-760-6739,35.261427931,129.086884946
126,부산광역시,부곡119안전센터,부산광역시 금정구 중앙대로 1789(부곡동),051-760-6711,051-760-6719,35.243896857,129.092392311
127,부산광역시,산성119안전센터,부산광역시 금정구 산성로 396(금성동),051-760-6752,051-760-6759,35.251062685,129.050915921
128,부산광역시,서동119안전센터,부산광역시 동래구 반송로 331(명장동),051-760-6723,051-760-6729,35.209009864,129.103298594
129,부산광역시,회동119안전센터,부산광역시 금정구 개좌로 286(회동동),051-760-6742,051-760-6749,35.233307996,129.127813978
130,부산광역시,송정119안전센터,부산광역시 해운대구 송정중앙로15번길 16(송정동),051-760-5432,051-760-5439,35.183810398,129.203021440
131,부산광역시,일광119안전센터,부산광역시 기장군 일광읍 해빛5로 15,051-760-5422,051-760-5429,35.260850527,129.221021837
132,부산광역시,장안119안전센터,부산광역시 기장군 기장읍 길천3길 11,051-760-5442,051-760-5449,,
133,부산광역시,정관119안전센터,부산광역시 기장군 정관읍 용수로 7(정관읍),051-760-5412,051-760-5419,35.324948020,129.179872239
134,부산광역시,감만119안전센터,부산광역시 남구 우암로 81(감만동),051-760-6822,051-760-6829,35.117718915,129.080517497
135,부산광역시,광안119안전센터,부산광역시 수영구 광일로 64(광안동),051-760-6812,051-760-6819,35.163165653,129.107039321
136,부산광역시,대연119안전센터,부산광역시 남구 수영로 279(대연동),051-760-6832,051-760-6839,35.136218886,129.097028430
137,부산광역시,망미119안전센터,부산광역시 수영구 연수로 330(망미동),051-760-6842,051-760-6849,35.171795907,129.106487964
138,부산광역시,용당119안전센터,부산광역시 남구 신선로 398(용당동),051-760-6852,051-760-6859,35.120671783,129.098633584
139,부산광역시,사직119안전센터,부산광역시 동래구 체육공원로 74(사직동),051-760-6352,051-760-6359,35.194656279,129.059243812
140,부산광역시,수안119안전센터,부산광역시 동래구 명륜로45번길 7(수안동),051-760-6322,051-760-6329,35.198178276,129.083841067
141,부산광역시,양정119안전센터,부산광역시 부산진구 연수로 44(양정동),051-760-6342,051-760-6349,35.175108043,129.073986715
142,부산광역시,연산119안전센터,부산광역시 연제구 고분로 216(연산동),051-760-6312,051-760-6319,35.184320119,129.105515732
143,부산광역시,온천119안전센터,부산광역시 동래구 우장춘로 196(온천동),051-760-6332,051-760-6339,35.223269523,129.077593973
144,부산광역시,가야119안전센터,부산광역시 부산진구 가야대로 627(가야동),051-760-6241,051-760-6249,35.155750568,129.040389991
145,부산광역시,당감119안전센터,부산광역시 부산진구 백양산로53번길 65(당감동),051-760-6261,051-760-6269,35.171692357,129.028529155
146,부산광역시,범일119안전센터,부산광역시 동구 범일로 115(범일동),051-760-6221,051-760-6229,35.140468084,129.059042563
147,부산광역시,부암119안전센터,부산광역시 부산진구 신천대로 282(부암동),051-760-6251,051-760-6259,35.166878180,129.050723471
148,부산광역시,부전119안전센터,부산광역시 부산진구 서전로 43(전포동),051-760-6211,051-760-6219,35.158011507,129.064634665
149,부산광역시,수정119안전센터,부산광역시 동구 중앙대로 383-1(수정동),051-760-6231,051-760-6239,35.129611522,129.049216815
150,부산광역시,안창119안전센터,부산광역시 동구 안창로 62(범일동),051-760-6271,051-760-6279,35.146014005,129.041755648
151,부산광역시,구포119안전센터,부산광역시 북구 만덕대로 31(덕천동),051-760-5322,051-760-5329,35.211149667,129.008364684
152,부산광역시,금곡119안전센터, 부산광역시 북구 금곡대로 680(금곡동),051-760-5312,051-760-5319,35.267336609,129.017616874
153,부산광역시,만덕119안전센터,부산광역시 북구 함박봉로 142(만덕동),051-760-5342,051-760-5349,35.204810587,129.033188373
154,부산광역시,화명119안전센터,부산광역시 북구 금곡대로 184(화명동),051-760-5332,051-760-5339,35.225264923,129.010305094
155,부산광역시,감전119안전센터,부산광역시 사상구 가야대로 41(감전동),051-760-6422,051-760-6429,35.151840854,128.977390984
156,부산광역시,모라119안전센터,부산광역시 사상구 백양대로 950(모라동),051-760-6472,051-760-6479,35.190967994,128.992260795
157,부산광역시,삼락119안전센터,부산광역시 사상구 삼덕로 17(삼락동),051-760-6412,051-760-6419,35.174373038,128.979051250
158,부산광역시,주례119안전센터,부산광역시 사상구 양지로22(주례동),051-760-6462,015-760-6469,35.154253173,129.004406093
159,부산광역시,학장119안전센터,부산광역시 사상구 학감대로 89(학장동),051-760-6482,051-760-6489,35.139681239,128.990455223
160,부산광역시,감천119안전센터,부산광역시 사하구 원양로 405(감천동),051-760-6552,051-760-6559,35.086300773,129.004796524
161,부산광역시,괴정119안전센터,부산광역시 사하구 낙동대로 262(괴정동),051-760-6522,051-760-6529,35.099419445,128.988384762
162,부산광역시,다대119안전센터,부산광역시 사하구 다대로 622(다대동),051-760-6542,051-760-6549,35.051180038,128.970370153
163,부산광역시,신평119안전센터,부산광역시 사하구 장평로 270(신평동),051-760-6512,051-760-6519,35.089981698,128.973846303
164,부산광역시,하단119안전센터,부산광역시 사하구 낙동남로 1407(하단동),051-760-6532,051-760-6539,35.106523740,128.965590780
165,부산광역시,부민119안전센터,부산광역시 서구 임시수도기념로 21-4(부민동3가),051-760-6124,051-760-6129,35.103217101,129.018605256
166,부산광역시,중앙119안전센터,부산광역시 중구 중앙대로 110(중앙동4가),051-760-6112,051-760-6119,35.107031672,129.036864857
167,부산광역시,창선119안전센터,부산광역시 중구 대청로 68-1(부평동1가),051-760-6142,051-760-6149,35.102848058,129.027343992
168,부산광역시,초량119안전센터,부산광역시 동구 중앙대로 260번길 7(초량동),051-760-6152,051-760-6159,35.119801547,129.043147064
169,부산광역시,충무119안전센터,부산광역시 서구 충무대로 186(남부민동),051-760-6131,051-760-6139,35.087088304,129.024788230
170,부산광역시,동삼119안전센터,부산광역시 영도구 해양로 297(동삼동),051-760-6912,051-760-6919,35.081786495,129.076867455
171,부산광역시,부두119안전센터,부산광역시 동구 충장대로 286(좌천동),051-760-6932,051-760-6939,35.125623721,129.052236196
172,부산광역시,영선119안전센터,부산광역시 영도구 태종로 115(영선동1가),051-760-6922,051-760-6929,35.091013336,129.043504733
173,부산광역시,청학119안전센터,부산광역시 영도구 태종로 274(청학동),051-760-6942,051-760-6949,35.098126535,129.056599799
174,부산광역시,반송119안전센터,부산광역시 해운대구 아랫반송로 10,051-760-6662,051-760-6669,35.225391671,129.146993216
175,부산광역시,반여119안전센터,부산광역시 해운대구 선수촌로 21번길 64(반여동),051-760-6632,051-760-6639,35.197408187,129.117841915
176,부산광역시,센텀119안전센터,부산광역시 해운대구 센텀동로 50(우동),051-760-6652,051-760-6659,35.173770097,129.130760195
177,부산광역시,우동119안전센터,부산광역시 해운대구 해운대해변로 106(우동),051-760-6612,051-760-6619,35.159543903,129.143748200
178,부산광역시,좌동119안전센터,부산광역시 해운대구 대천로67번길 35(좌동),051-760-6642,051-760-6649,35.173650720,129.166464691
179,부산광역시,중동119안전센터,부산광역시 해운대구 달맞이길 117번길 72(중동),051-760-6622,051-760-6629,35.160682681,129.175849868
180,대구광역시,구암119안전센터,대구광역시 북구 구암서로 71,053-607-5931,053-609-5939,35.942802620,128.565726143
181,대구광역시,군위119안전센터,대구광역시 군위군 군위읍 군위공단길 65,053-607-5981,,36.207588155,128.560416803
182,대구광역시,금호119안전센터,대구광역시 북구 한강로 105,053-607-5882,053-314-0119,35.896186169,128.521328354
183,대구광역시,무태119안전센터,대구광역시 북구 호국로43길 21,053-607-5961,053-952-2119,35.920920056,128.596896929
184,대구광역시,읍내119안전센터,대구광역시 북구 칠곡중앙대로 570,053-607-5941,053-321-0119,35.946424594,128.551550904
185,대구광역시,의흥119안전센터,대구광역시 군위군 의흥면 읍내길 23,053-607-5991,,36.176713533,128.713966415
186,대구광역시,태전119안전센터,대구광역시 북구 칠곡중앙대로 184,053-607-5951,053-312-0119,35.912352153,128.548841273
187,대구광역시,다사119안전센터,대구광역시 달성군 다사읍 달구벌대로 920,053-601-5621,053-587-4119,35.855431231,128.467381410
188,대구광역시,대천119안전센터,대구광역시 달서구 달서대로58길 129,053-601-5650,053-584-0120,35.824949333,128.506749748
189,대구광역시,매곡119안전센터,대구광역시 달성군 다사읍 달구벌대로 753,053-601-5661,053-591-0119,35.861162675,128.454194855
190,대구광역시,성서119안전센터,대구광역시 달서구 성서로 357,053-601-5631,053-583-0120,35.849529542,128.506866514
191,대구광역시,도원119안전센터,대구광역시 달서구 도원로 8,053-607-2970,053-636-8110,35.808997240,128.535630540
192,대구광역시,본리119안전센터,대구광역시 달서구 대명천로 134,053-607-2950,053-625-0119,35.839693708,128.545081819
193,대구광역시,송현119안전센터,대구광역시 달서구 월배로 262,053-607-2960,053-632-1990,35.820022686,128.542026559
194,대구광역시,월성119안전센터,대구광역시 달서구 학산로 75,053-607-2930,053-635-0228,35.831039620,128.534688524
195,대구광역시,죽전119안전센터,대구광역시 달서구 와룡로 222,053-607-2990,053-563-0120,35.852595504,128.537639615
196,대구광역시,구지119안전센터,대구광역시 달성군 구지면 달성2차로 111,053-602-4970,053-611-1197,35.640050140,128.418983050
197,대구광역시,논공119안전센터,대구광역시 달성군 논공읍 논공중앙로33길 5,053-602-4950,053-615-6119,35.730100784,128.453021509
198,대구광역시,옥포119안전센터,대구광역시 달성군 옥포읍 돌미로 93,053-602-4980,053-615-9195,35.781396748,128.443882397
199,대구광역시,현풍119안전센터,대구광역시 달성군 현풍읍 비슬로 480,053-602-4930,053-670-5426,35.682595485,128.446960450
200,대구광역시,화원119안전센터,대구광역시 달성군 화원읍 화암로 122,053-602-4960,053-639-2119,35.798785549,128.501653039
201,대구광역시,공산119안전센터,대구광역시 동구 팔공산로 1579,053-605-5361,053-982-5119,35.962768432,128.697731198
202,대구광역시,동촌119안전센터,대구광역시 동구 해동로 180,053-605-5331,053-985-9119,35.886709426,128.648442976
203,대구광역시,불로119안전센터,대구광역시 동구 팔공로50길 19,053-605-5351,053-982-6119,35.922027608,128.643946426
204,대구광역시,신천119안전센터,대구광역시 동구 동대구로 507,053-605-5321,053-755-3119,35.875940849,128.625342761
205,대구광역시,안심119안전센터,대구광역시 동구 매여로 102,053-605-5341,053-961-4119,35.889082561,128.708651238
206,대구광역시,율하119안전센터,대구광역시 동구 율하동로8길 5,053-605-5371,053-964-8911,35.862088885,128.701962856
207,대구광역시,노원119안전센터,대구광역시 북구 노원로 42,053-350-5751,053-350-5729,35.892150164,128.567391244
208,대구광역시,대현119안전센터,대구광역시 북구 대현로 105,053-350-5770,053-350-5779,35.882442134,128.610629878
209,대구광역시,산격119안전센터,대구광역시 북구 유통단지로8길 88,053-350-5791,053-350-5799,35.906112188,128.614236302
210,대구광역시,칠성119안전센터,대구광역시 북구 칠성남로 112,053-350-5721,053-350-5729,35.878001521,128.592313786
211,대구광역시,침산119안전센터,대구광역시 북구 침산남로 149,053-350-5749,053-353-0119,35.888280319,128.592302839
212,대구광역시,내당119안전센터,대구광역시 서구 서대구로3길 16,053-320-4495,053-557-0119,35.859437944,128.555261137
213,대구광역시,비산119안전센터,대구광역시 서구 달서로 206,053-320-4496,053-565-5119,35.880453572,128.572017677
214,대구광역시,이현119안전센터,대구광역시 서구 국채보상로 119,053-320-4493,053-552-0119,35.869080554,128.544138969
215,대구광역시,평리119안전센터,대구광역시 서구 달서천로 186,053-320-4492,053-352-8953,35.881917127,128.554389233
216,대구광역시,가창119안전센터,대구광역시 달성군 가창면 가창로 547,053-607-3900,050-2671-0119,35.762318168,128.650795125
217,대구광역시,고산119안전센터,대구광역시 수성구 고산로 105,053-607-3890,050-2671-0119,35.840205609,128.704478922
218,대구광역시,만촌119안전센터,대구광역시 수성구 달구벌대로 2658,053-607-3840,050-2671-0119,35.855359138,128.652110117
219,대구광역시,무열로119안전센터,대구광역시 수성구 무열로 139,053-607-3880,050-2671-0119,35.870612786,128.648137773
220,대구광역시,범물119안전센터,대구광역시 수성구 청호로 87,053-607-3820,053-607-3839,35.825443612,128.644225017
221,대구광역시,상동119안전센터,대구광역시 수성구 파동로51길 5,053-607-3860,050-2671-0119,35.825095651,128.609375564
222,대구광역시,수성119안전센터,대구광역시 수성구 들안로60길 30,053-607-3870,050-2671-0119,35.856680278,128.620900835
223,대구광역시,황금119안전센터,대구광역시 수성구 동대구로12길 41,053-607-3850,050-2671-0119,35.835517705,128.626437554
224,대구광역시,남산119안전센터,대구광역시 중구 달구벌대로 1926,053-601-4571,053-255-2377,35.862294743,128.575085856
225,대구광역시,대신119안전센터,대구광역시 중구 큰장로26길 45,053-601-4574,053-255-0020,35.868909094,128.580773120
226,대구광역시,명덕119안전센터,대구광역시 남구 명덕로34길 22,053-601-4577,053-657-2006,35.855503887,128.587191201
227,대구광역시,봉덕119안전센터,대구광역시 남구 희망로3길 29,053-601-4573,053-472-3008,35.849025228,128.599284423
228,대구광역시,삼덕119안전센터,대구광역시 중구 공평로 35,053-601-4575,053-426-3007,35.867223589,128.599667385
229,대구광역시,서문로119안전센터,대구광역시 중구 경상감영길 45,053-601-4572,053-253-3008,35.871578834,128.589980842
230,대구광역시,성명119안전센터,대구광역시 남구 대명남로 12-1,053-601-4578,053-657-2330,35.833407820,128.560145540
231,인천광역시,강화119안전센터,인천광역시 강화군 강화읍 남문로23번길 11,032-930-5894,032-930-0580,37.739599650,126.487360699
232,인천광역시,길상119안전센터,인천광역시 강화군 길상면 마니산로 93,032-930-5822,032-930-5899,37.638339791,126.482568154
233,인천광역시,내가119안전센터,인천광역시 강화군 내가면 강화서로 235-1,032-930-5823,032-933-9919,37.717508841,126.390106060
234,인천광역시,불은119안전센터,인천광역시 강화군 불은면 중앙로 505,032-930-5811,032-930-5812,37.712069037,126.458337430
235,인천광역시,검단119안전센터,인천광역시 서구 완정로191,032-590-2725,032-564-0119,37.602645302,126.655147851
236,인천광역시,마전119안전센터,인천광역시 서구 원당대로736,032-590-2715,032-590-2789,37.592956094,126.682329611
237,인천광역시,오류119안전센터,인천광역시 서구 대촌로6,032-590-2755,032-565-4119,37.594592808,126.632578939
238,인천광역시,원당119안전센터,인천광역시 서구 원당대로881,032-590-2735,032-568-1196,37.593786861,126.699630263
239,인천광역시,계산119안전센터,인천광역시 계양구 주부토로557,032-650-5622,032-547-0119,37.543974102,126.728236184
240,인천광역시,작전119안전센터,인천광역시 계양구 장제로774,032-650-5621,032-555-8118,37.537064423,126.734918580
241,인천광역시,장기119안전센터,인천광역시 계양구 장기서로14,032-650-5623,032-547-6112,37.576333963,126.733690273
242,인천광역시,효성119안전센터,인천광역시 계양구 효서로 96-1,032-650-5624,032-554-2119,37.527555429,126.706498386
243,인천광역시,고잔119안전센터,인천광역시 남동구 남동서로 208,032-723-5521,032-818-7119,37.408223227,126.692888578
244,인천광역시,논현119안전센터,인천광역시 남동구 소래역로 109,032-439-2119,032-439-5119,37.405331689,126.729687665
245,인천광역시,도림119안전센터,인천광역시 남동구 비류대로 667,032-814-2119,032-814-1196,37.422674728,126.709114700
246,인천광역시,동춘119안전센터,인천광역시 연수구 앵고개로 241,032-813-2119,032-813-1193,37.409146452,126.671288558
247,인천광역시,소래119안전센터,인천광역시 남동구 에코중앙로 86,032-432-0440,032-432-0550,37.386418438,126.720689734
248,인천광역시,옥련119안전센터,인천광역시 연수구 청량로155번길 7,032-832-0119,032-834-6119,37.420684300,126.651933342
249,인천광역시,간석119안전센터,인천광역시 남동구 경인로 621,032-870-5223,032-431-1119,37.465825199,126.706368849
250,인천광역시,구월119안전센터,인천광역시 남동구 인주대로 714,032-870-5221,032-461-1197,37.449006388,126.716303203
251,인천광역시,담방119안전센터,인천광역시 남동구 매소홀로 1044,032-870-5224,032-469-1119,37.439334477,126.739021797
252,인천광역시,만수119안전센터,인천광역시 남동구 백범로 207,032-870-5222,032-464-7290,37.459678305,126.725804774
253,인천광역시,서창119안전센터,인천광역시 남동구 서창방산로 61,032-870-5259,032-870-1199,37.422680347,126.751602876
254,인천광역시,관교119안전센터,인천광역시 미추홀구 인하로 450,032-870-3455,032-435-1196,37.444224147,126.696394920
255,인천광역시,도화119안전센터,인천광역시 미추홀구 장고개로 85,032-870-3453,032-872-2119,37.475448979,126.669283431
256,인천광역시,숭의119안전센터,인천광역시 미추홀구 석정로49번길 30,032-870-3456,032-891-3119,37.464993577,126.642498599
257,인천광역시,신기119안전센터,인천광역시 미추홀구 인하로 190,032-870-3295,032-870-3288,37.448446091,126.669060100
258,인천광역시,용현119안전센터,인천광역시 미추홀구 독배로 376,032-870-3454,032-889-2119,37.453373757,126.648562319
259,인천광역시,주안119안전센터,인천광역시 미추홀구 한나루로 607,032-870-3452,032-874-7261,37.460433307,126.672288721
260,인천광역시,갈산119안전센터,인천광역시 부평구 부평대로 324,032-723-5353,032-519-1190,37.520225794,126.722149332
261,인천광역시,부개119안전센터,인천광역시 부평구 부개로 6,032-723-5357,032-362-1991,37.497921369,126.739713713
262,인천광역시,부평119안전센터,인천광역시 부평구 부평대로 8,032-723-5354,032-513-1190,37.492172124,126.723441364
263,인천광역시,산곡119안전센터,인천광역시 부평구 마장로 198,032-723-5356,032-506-1190,37.495716110,126.703099136
264,인천광역시,삼산119안전센터,인천광역시 부평구 충선로 252,032-723-5358,032-508-9119,37.511753491,126.736092930
265,인천광역시,십정119안전센터,인천광역시 부평구 경원대로 1111,032-723-5355,032-422-0819,37.480312668,126.697253349
266,인천광역시,가좌119안전센터,인천광역시 서구 백범로678번길 17,032-578-0119,032-577-2119,37.482298753,126.682605603
267,인천광역시,검암119안전센터,인천광역시 서구 승학로 474,032-568-7119,032-562-1199,37.564072091,126.673600613
268,인천광역시,석남119안전센터,인천광역시 서구 석남로 102,032-571-0119,032-581-7609,37.500592677,126.672967791
269,인천광역시,신현119안전센터,인천광역시 서구 가정로 333-1,032-572-0119,032-572-7119,37.514761745,126.672511855
270,인천광역시,연희119안전센터,인천광역시 서구 서곶로 292,032-723-5421,032-562-0138,37.543293017,126.677179942
271,인천광역시,원창119안전센터,인천광역시 서구 북항로32번길 47-5,032-577-0119,032-581-2119,37.510529021,126.644717359
272,인천광역시,청라119안전센터,인천광역시 서구 청라한내로 77,032-569-5026,032-569-5027,37.532236273,126.627155107
273,인천광역시,국제119안전센터,인천광역시 연수구 센트럴로 412,032-831-6693,032-832-6119,37.410276072,126.628787767
274,인천광역시,미래119안전센터,인천광역시 연수구 첨단대로60번길 15,032-810-6661,032-810-6664,37.367231780,126.651590256
275,인천광역시,신송119안전센터,인천광역시 연수구 해돋이로 92,032-810-6683,032-831-8119,37.390904895,126.651900069
276,인천광역시,영흥119안전센터,인천광역시 옹진군 영흥로 283-32,032-810-6692,032-886-3119,37.256431037,126.483905383
277,인천광역시,공항119안전센터,인천광역시 중구 제2터미널대로 268,032-727-6180,032-727-6190,37.486873129,126.415515643
278,인천광역시,용유119안전센터,인천광역시 중구 용유서로128번길 1,032-727-6183,032-747-0119,37.448533261,126.393896043
279,인천광역시,운남119안전센터,인천광역시 중구 중구 운남로 116,032-727-6181,032-746-0119,37.488049718,126.533305185
280,인천광역시,운서119안전센터,인천광역시 중구 흰바위로27번길 16,032-727-6182,032-751-0119,37.493744419,126.488444653
281,인천광역시,만석119안전센터,인천광역시 동구 제물량로 396,032-766-0119,032-766-2119,37.483396999,126.625813577
282,인천광역시,백령119안전센터,인천광역시 옹진군 백령면 백령남로 30,032-836-2119,032-836-2119,37.967547551,124.717546020
283,인천광역시,송림119안전센터,인천광역시 동구 샛골로 133,032-764-7119,032-764-7109,37.474312952,126.644083210
284,인천광역시,송현119안전센터,인천광역시 동구 방축로 39,032-576-0119,032-579-3119,37.486309789,126.650985698
285,인천광역시,연안119안전센터,인천광역시 중구 축항대로118번길 108,032-887-4689,032-887-4688,37.446614969,126.604153094
286,인천광역시,중앙119안전센터,"인천광역시 중구 인중로 204, 1층",032-870-5180,032-870-5168,37.470225076,126.622573497
287,광주광역시,비아119안전센터,광주광역시 광산구 비아로12번길 10(비아동),062-606-4671,062-606-4684,35.220747390,126.823610042
288,광주광역시,빛그린119안전센터,광주광역시 광산구 삼도로 65(삼거동),062-606-4731,062-606-4744,35.165027073,126.671357998
289,광주광역시,송정119안전센터,광주광역시 광산구 상무대로 93-1(도산동),062-606-4641,062-606-4654,35.129139341,126.785481872
290,광주광역시,신가119안전센터,광주광역시 광산구 수등로 236(신가동),062-606-4686,062-606-4699,35.184908044,126.834775295
291,광주광역시,월곡119안전센터,광주광역시 광산구 우산로 85번길 12-5(우산동),062-606-4656,062-606-4669,35.157387405,126.809943601
292,광주광역시,첨단119안전센터,광주광역시 광산구 임방울대로825번길 16(쌍암동),062-606-4701,062-606-4714,35.218775541,126.849165750
293,광주광역시,평동119안전센터,광주광역시 광산구 월전로 59(월전동),062-606-4716,062-606-4729,35.124350068,126.773988382
294,광주광역시,하남119안전센터,광주광역시 광산구 하남산단1번로 13(하남동),062-606-4601,062-606-4629,35.186413235,126.796466139
295,광주광역시,대촌119안전센터,광주광역시 남구 회재로 251(지석동),062-606-4441,062-606-4454,35.085783760,126.828831026
296,광주광역시,봉선119안전센터,광주광역시 남구 오방로 63(방림동),062-606-4426,062-606-4439,35.131037636,126.918981379
297,광주광역시,송하119안전센터,광주광역시 남구 송암로58번길 13(송하동),062-606-4371,062-606-4399,35.110563908,126.878290177
298,광주광역시,월산119안전센터,광주광역시 남구 수박등로 1(월산동),062-606-4411,062-606-4424,35.140618757,126.894677816
299,광주광역시,대인119안전센터,광주광역시 동구 제봉로 210(대인동),062-606-4201,062-606-4229,35.154628980,126.914565774
300,광주광역시,용산119안전센터,광주광역시 동구 남문로 535(용산동),062-606-4241,062-606-4254,35.118754757,126.933038333
301,광주광역시,지산119안전센터,광주광역시 동구 밤실로30번길 16(지산동),062-606-4256,062-606-4269,35.149959323,126.938543313
302,광주광역시,건국119안전센터,광주광역시 북구 용두마을길 10,062-606-4576,062-606-4589,35.219639505,126.877964008
303,광주광역시,동림119안전센터,광주광역시 북구 북문대로 202(동림동),062-606-4561,062-606-4574,35.186472728,126.870291222
304,광주광역시,두암119안전센터,광주광역시 북구 삼정로 5(두암동),062-606-4546,062-606-4559,35.162423956,126.936817804
305,광주광역시,문흥119안전센터,광주광역시 북구 서하로 290(오치동),062-606-4461,062-606-4489,35.186287700,126.912008300
306,광주광역시,우산119안전센터,광주광역시 북구 동문대로 127(우산동),062-606-4516,062-606-4529,35.174540199,126.925893266
307,광주광역시,일곡119안전센터,광주광역시 북구 설죽로 529(일곡동),062-606-4531,062-606-4544,35.206360046,126.897289165
308,광주광역시,임동119안전센터,광주광역시 북구 서림로 5(임동),062-606-4501,062-606-4514,35.168860097,126.890719827
309,광주광역시,금호119안전센터,광주광역시 서구 운천로 112(쌍촌동),062-606-4326,062-606-4339,35.142711285,126.858288992
310,광주광역시,상무119안전센터,광주광역시 서구 치평로 65(치평동),062-606-4341,062-606-4354,35.153282566,126.847087194
311,광주광역시,염주119안전센터,광주광역시 서구 염화로 77(화정동),062-606-4311,062-606-4324,35.141423123,126.873778311
312,광주광역시,풍암119안전센터,광주광역시 서구 회재로 907(금호동),062-606-4356,062-606-4369,35.123700105,126.862672371
313,광주광역시,화정119안전센터,광주광역시 서구 화운로 197(화정동),062-606-4271,062-606-4299,35.156305112,126.876563752
314,대전광역시,가양119안전센터,대전광역시 동구 계족로 300,042-270-1221,042-270-1229,36.339093214,127.437671516
315,대전광역시,삼성119안전센터,대전광역시 동구 태전로 134,042-270-1231,042-270-1239,36.340314314,127.421968260
316,대전광역시,원동119안전센터,대전광역시 동구 대전천동로 508,042-270-1241,042-270-1249,36.326960173,127.432932894
317,대전광역시,부사119안전센터,대전광역시 중구 대종로 373,042-270-1251,042-270-1259,36.315474147,127.429178013
318,대전광역시,산내119안전센터,대전광역시 동구 산내로 1328,042-270-1261,042-270-1269,,
319,대전광역시,용운119안전센터,대전광역시 동구 용운로 151번길 88,042-270-1271,042-270-1279,36.331289100,127.461790350
320,대전광역시,갈마119안전센터,대전광역시 서구 갈마중로 15,042-270-1804,042-270-1959,36.347880703,127.371121099
321,대전광역시,태평119안전센터,대전광역시 중구 동서대로 1235,042-270-1811,042-270-1819,36.326624464,127.396893949
322,대전광역시,탄방119안전센터,대전광역시 서구 문정로 142,042-270-1821,042-270-1829,36.346819320,127.395257905
323,대전광역시,월평119안전센터,대전광역시 서구 청사로 27,042-270-1831,042-270-1839,36.360275870,127.366872248
324,대전광역시,샘머리119안전센터,대전광역시 서구 둔산로 101번길 26,042-270-1841,042-270-1849,36.352537669,127.385574235
325,대전광역시,법동119안전센터,대전광역시 대덕구 계족로 682,042-270-1851,042-270-1859,36.372396942,127.429026529
326,대전광역시,대화119안전센터,대전광역시 대덕구 대화로 81,042-270-1861,042-270-1869,36.366906694,127.410867500
327,대전광역시,덕암119안전센터,대전광역시 대덕구 신탄진로 661,042-270-1871,042-270-1879,36.437288469,127.425650962
328,대전광역시,문평119안전센터,대전광역시 대덕구 문평동로 18번길 34,042-270-1881,042-270-1889,36.446903715,127.404712123
329,대전광역시,송촌119안전센터,대전광역시 대덕구 동춘당로 65,042-270-1891,042-270-1899,36.363476606,127.441967661
330,대전광역시,도룡119안전센터,대전광역시 유성구 대덕대로 516,042-270-1903,042-270-1909,36.379204960,127.378860410
331,대전광역시,전민119안전센터,대전광역시 유성구 엑스포로 486-11,042-270-1912,042-270-1919,36.399349949,127.405965327
332,대전광역시,구암119안전센터,대전광역시 유성구 월드컵대로 263,042-270-1922,042-270-1929,36.348907095,127.329239817
333,대전광역시,궁동119안전센터,대전광역시 유성구 궁동로 35,042-270-1931,042-270-1939,36.363668636,127.348716215
334,대전광역시,노은119안전센터,대전광역시 유성구 노은로 101,042-270-1942,042-270-1949,36.368689432,127.317427355
335,대전광역시,복수119안전센터,대전광역시 서구 복수서로 67,042-270-1952,042-270-1952,36.309233966,127.372458695
336,대전광역시,문화119안전센터,대전광역시 중구 계룡로 918번길 67,042-270-1961,042-270-1969,36.319273176,127.411237023
337,대전광역시,산성119안전센터,대전광역시 중구 산성로 59,042-270-1971,042-270-1979,36.307751692,127.395008288
338,대전광역시,가수원119안전센터,대전광역시 서구 용소로 46,042-270-1981,042-270-1989,36.309060947,127.352664438
339,대전광역시,원내119안전센터,대전광역시 유성구 계백로 801번길 17,042-270-1991,042-270-1999,36.291895739,127.318883787
340,대전광역시,기성119안전센터,대전광역시 서구 금평2길 57,042-270-1281,042-270-1228,36.253203343,127.341776891
341,울산광역시,공단119안전센터,울산광역시 남구 부곡동 287,052-241-2670,052-229-7964,,
342,울산광역시,무거119안전센터,울산광역시 남구 문수로 89,052-241-2650,052-229-7964,35.538909480,129.263683219
343,울산광역시,삼산119안전센터,울산광역시 삼산중로 149,052-241-2580,052-229-7964,35.547140687,129.335415101
344,울산광역시,신정119안전센터,울산광역시 남구 신정로87번길 2,052-241-2630,052-229-7964,35.539381378,129.319594292
345,울산광역시,여천119안전센터,울산광역시 남구 여천로 81-33,052-241-2610,052-229-7964,35.525295420,129.341337815
346,울산광역시,옥동119안전센터,울산광역시 남구 대공원입구로21번길 20,052-241-2690,052-229-7964,35.534338787,129.292183849
347,울산광역시,장생포119안전센터,울산광역시 남구 매암로 18,052-241-2560,052-229-7964,35.511580112,129.377418392
348,울산광역시,온산119안전센터,울산광역시 울주군 덕신로 232,052-241-2580,052-229-7967,35.433365035,129.306670686
349,울산광역시,온양119안전센터,울산광역시 울주군 온양로 74,052-241-2890,052-229-7967,35.410860396,129.279689138
350,울산광역시,웅촌119안전센터,울산광역시 울주군 웅촌면 곡천검단로 9,052-241-2910,052-229-7967,35.463446521,129.206456882
351,울산광역시,화산119안전센터,울산광역시 울주군 공단로 417,052-241-2840,052-229-7967,35.439035440,129.335235403
352,울산광역시,전하119안전센터,울산광역시 동구 진성4가길 8,052-241-2760,052-229-7965,35.509334714,129.429083335
353,울산광역시,화암119안전센터,울산광역시 동구 꽃바위2가길 9,052-241-2720,052-229-7965,35.482334306,129.412584914
354,울산광역시,화정119안전센터,울산광역시 동구 방어진순환도로 601,052-241-2740,052-229-7965,35.495511178,129.426997152
355,울산광역시,강동119안전센터,울산광역시 북구 산하중앙2로 231,052-229-8280,052-229-7966,35.631026571,129.436755199
356,울산광역시,농소119안전센터,울산광역시 북구 아진로 72,052-229-8200,052-229-7966,35.629955634,129.340768520
357,울산광역시,매곡119안전센터,울산광역시 북구 오토밸리로 1024,052-229-8260,052-229-7966,35.648693399,129.359650440
358,울산광역시,송정119안전센터,울산광역시 북구 화동로 178,052-229-8200,052-229-7966,35.606784521,129.370125979
359,울산광역시,염포119안전센터,울산광역시 북구 염포로 769,052-229-8220,052-229-7966,35.526424860,129.399023511
360,울산광역시,두서119안전센터,울산광역시 울주군 두서면 인보로 85,052-241-2552,052-229-7968,35.642435922,129.158888303
361,울산광역시,범서119안전센터,울산광역시 울주군 범서읍 구영앞길 99,052-241-2506,052-229-7968,35.569759264,129.236257900
362,울산광역시,언양119안전센터,울산광역시 울주군 도호길 72-37,052-241-2466,052-229-7968,35.544970594,129.136465232
363,울산광역시,병영119안전센터,울산광역시 중구 구교로 226,052-241-2444,052-229-7963,35.564558930,129.342467416
364,울산광역시,성남119안전센터,울산광역시 중구 젊음의거리 6,052-241-2426,052-229-7963,35.553209430,129.316747255
365,울산광역시,유곡119안전센터,울산광역시 중구 종가로 205,052-241-2407,052-229-7963,35.562950802,129.299310421
366,울산광역시,태화119안전센터,울산광역시 중구 태화로 111,052-241-2533,052-229-7963,35.553389986,129.287964654
367,세종특별자치시,보람119안전센터,세종특별자치시 남세종로 436(보람동),044-300-8653,044-864-3119,36.477910886,127.291388174
368,세종특별자치시,아름119안전센터,세종특별자치시 보듬3로 119(아름동),044-300-8633,044-269-5645,36.511416366,127.246635237
369,세종특별자치시,어진119안전센터,세종특별자치시 절재로 301(어진동),044-300-8623,044-864-9119,36.506283275,127.273661388
370,세종특별자치시,장군119안전센터,세종특별자치시 장군면 장척로 387-4,044-300-8663,044-868-5114,,
371,세종특별자치시,한솔119안전센터,세종특별자치시 노을3로 29(한솔동),044-300-8643,044-862-2419,36.480504318,127.259204968
372,세종특별자치시,부강119안전센터,세종특별자치시 부강면 청연로 7,044-300-8543,044-277-7078,36.528350811,127.372116292
373,세종특별자치시,연서119안전센터,세종특별자치시 연서면 도신고복로 306,044-300-8553,044-862-8119,36.589551577,127.202256576
374,세종특별자치시,전의119안전센터,세종특별자치시 전의면 서정길 46-6,044-300-8533,044-862-7119,36.686487085,127.192328851
375,세종특별자치시,조치원119안전센터,세종특별자치시 조치원읍 세종로 2439,044-300-8523,044-863-6119,36.604788241,127.288901759
376,경기도,정자119안전센터,경기도 수원시 장안구 정자천로 189번길 12,031-8012-9512,031-280-8520,37.297227112,126.996006328
377,경기도,원천119안전센터,경기도 수원시 영통구 중부대로 349,031-8012-9538,031-280-8523,37.273150189,127.054218926
378,경기도,파장119안전센터,경기도 수원시 장안구 서부로 2308,031-8012-9576,031-280-8526,37.312381447,126.979179026
379,경기도,이의119안전센터,경기도 수원시 영통구 도청로18번길 33,031-8012-9587,031-280-8527,37.288696344,127.056532869
380,경기도,영통119안전센터,경기도 수원시 영통구 매영로 325,031-8012-9141,031-280-8520,37.253206951,127.068826528
381,경기도,남부119안전센터,경기도 수원시 권선구 동수원로 286,031-639-8510,031-280-8521,37.254731287,127.036384358
382,경기도,매산119안전센터,경기도 수원시 팔달구 매산로 89,031-639-8521,031-280-8522,37.270495205,127.010709396
383,경기도,지만119안전센터,경기도 수원시 팔달구 경수대로 660,031-639-8531,031-280-8524,37.284297885,127.028688864
384,경기도,서둔119안전센터,경기도 수원시 권선구 서호동로 48,031-639-8541,031-280-8525,37.268949257,126.993371767
385,경기도,고색119안전센터,경기도 수원시 권선구 서부로 1614,031-639-8551,031-280-8528,37.253175283,126.975321828
386,경기도,호매실119안전센터,경기도 수원시 권선구 금곡로 194,031-639-8561,031-280-8529,37.273260003,126.951940047
387,경기도,하대원119안전센터,경기도 성남시 중원구 마지로 64,031-720-0500,031-280-8536,37.427899145,127.137191896
388,경기도,신흥119안전센터,경기도 성남시 수정구 시민로 151,031-720-0510,031-280-8537,37.441551847,127.143268044
389,경기도,상대원119안전센터,경기도 성남시 중원구 둔촌대로 469,031-720-0530,031-280-8538,37.432151660,127.169019914
390,경기도,단대119안전센터,경기도 성남시 수정구 논골로 11번길 7-2,031-720-0520,031-280-8539,37.454932718,127.159564731
391,경기도,위례119안전센터,경기도 성남시 수정구 헌릉로 1003,031-720-0540,031-280-8540,37.461924969,127.143639036
392,경기도,태평119안전센터,경기도 성남시 수정구 성남대로 1312,031-720-0550,031-280-8541,37.446917156,127.127149028
393,경기도,고등119안전센터,경기도 성남시 수정구 대왕판교로 931,031-720-0560,031-280-8541,37.423444408,127.101576012
394,경기도,서현119안전센터,경기도 성남시 분당구 양현로 14,031-8018-3501,031-280-8547,37.386034288,127.119486407
395,경기도,판교119안전센터,경기도 성남시 분당구 대왕판교로644번길 62,031-8018-3511,031-280-8548,37.399543841,127.113730409
396,경기도,서판교119안전센터,경기도 성남시 분당구 운중로 88,031-8018-3561,031-280-8896,37.391290218,127.072632289
397,경기도,수내119안전센터,경기도 성남시 분당구 백현로 241,031-8018-3521,031-280-8549,37.367360912,127.122564372
398,경기도,야탑119안전센터,경기도 성남시 분당구 양현로 485,031-8218-3531,031-280-8550,37.416464247,127.135949966
399,경기도,구미119안전센터,경기도 성남시 분당구 돌마로 138,031-8018-3551,031-280-8551,37.351891156,127.116517195
400,경기도,중앙119안전센터,경기도 부천시 원미구 신흥로 115,032-650-4501,031-280-8580,37.493290257,126.777928283
401,경기도,오정119안전센터,경기도 부천시 오정구 신흥로 499,032-650-4512,031-280-8581,37.527758534,126.777475536
402,경기도,중동119안전센터,경기도 부천시 원미구 부일로 346,032-650-4523,031-280-8582,37.487720445,126.768527955
403,경기도,괴안119안전센터,경기도 부천시 소사구 부광로8번길 49,032-650-4532,031-280-8583,37.482716116,126.810439612
404,경기도,원종119안전센터,경기도 부천시 오정구 원종로79번길 41,032-650-4542,031-280-8584,37.526006374,126.808496505
405,경기도,상동119안전센터,경기도 부천시 원미구 장말로 113,032-650-4553,031-280-8585,37.494298895,126.754496591
406,경기도,서부119안전센터,경기도 부천시 원미구 계남로 169,032-650-4563,031-280-8586,37.507907028,126.767774215
407,경기도,범박119안전센터,경기도 부천시 소사구 범안로 127,032-650-4574,031-280-8587,37.470609086,126.809435186
408,경기도,신상119안전센터,경기도 부천시 원미구 상동로117번길 36,032-650-4583,031-280-8588,37.508127431,126.751559903
409,경기도,여월119안전센터,경기도 부천시 오정구 여월로 62,032-650-4592,031-280-8589,37.511361281,126.805392503
410,경기도,부림119안전센터,경기도 안양시 동안구 관평로212번길 32 (관양동),031-470-0501,031-280-8595,37.395563102,126.960520336
411,경기도,안양119안전센터,경기도 안양시 만안구 현충로 55 (안양동),031-470-0511,031-280-8596,37.390376669,126.925592563
412,경기도,관양119안전센터,경기도 안양시 동안구 동편로13번길 6 (관양동),031-470-0531,031-280-8597,37.406731810,126.971584322
413,경기도,석수119안전센터,경기도 안양시 만안구 석수로 28 (석수동),031-470-0541,031-280-8598,37.408996526,126.909247782
414,경기도,귀인119안전센터,경기도 안양시 동안구 평촌대로 104 (평촌동),031-470-0551,031-280-8599,37.381797718,126.961499909
415,경기도,박달119안전센터,경기도 안양시 만안구 오리로 38 (박달동),031-470-0561,031-280-8600,37.407911546,126.884788127
416,경기도,고잔119안전센터,경기도 안산시 단원구 화랑로 407 (고잔동),031-470-7501,031-280-8606,37.321314538,126.833175706
417,경기도,원시119안전센터,경기도 안산시 단원구 동산로 31 (원시동),031-470-7511,031-280-8607,37.312967842,126.793594326
418,경기도,선부119안전센터,경기도 안산시 단원구 선부광장서로 43 (선부동),031-470-7521,031-280-8608,37.333934368,126.804398300
419,경기도,성곡119안전센터,경기도 안산시 단원구 장자골로 66 (성곡동),031-470-7541,031-280-8609,37.312913429,126.765642730
420,경기도,월피119안전센터,경기도 안산시 상록구 충장로 645 (월피동),031-470-7551,031-280-8610,37.335043597,126.854455018
421,경기도,군자119안전센터,경기도 안산시 단원구 번영1로 45 (성곡동),031-470-7561,031-280-8611,37.319883026,126.735850196
422,경기도,사동119안전센터,경기도 안산시 상록구 항가울로 230 (사동),031-470-7571,031-280-8612,37.300802769,126.843647348
423,경기도,대부119안전센터,경기도 안산시 단원구 영전로 375 (대부동동),031-470-7581,031-280-8613,37.239933111,126.617712959
424,경기도,반월119안전센터,경기도 안산시 상록구 건지미길 48 (건건동),031-470-7591,031-280-8614,37.303117259,126.905975813
425,경기도,신길119안전센터,경기도 안산시 단원구 삼일로 50(신길동),031-470-7481,031-280-8615,37.335043344,126.783642933
426,경기도,상록수119안전센터,경기도 안산시 상록수 충장로 237 (본오동),031-470-7531,031-280-8612,,
427,경기도,역북119안전센터,경기도 용인시 처인구 명지로 45,031-8021-0501,031-280-8622,37.232108835,127.189896918
428,경기도,양지119안전센터,경기도 용인시 처인구 양지면 남평로 46,031-8021-0531,031-280-8625,37.230090633,127.288906939
429,경기도,남사119안전센터,경기도 용인시 처인구 남사면 봉무로 13,031-8021-0541,031-280-8626,,
430,경기도,포곡119안전센터,경기도 용인시 처인구 포곡읍 포곡로 252,031-8021-0551,031-280-8627,37.277656393,127.230001900
431,경기도,이동119안전센터,경기도 용인시 처인구 이동면 백옥대로 416-2,031-8021-0561,031-280-8628,,
432,경기도,백암119안전센터,경기도 용인시 처인구 백암면 백암로 247,031-8021-0581,031-280-8630,37.167711985,127.371369085
433,경기도,모현119안전센터,경기도 용인시 처인구 모현면 독점로 31-12,031-8021-0141,031-280-8632,,
434,경기도,수지119안전센터,경기도 용인시 수지구 풍덕천로 177,031-6190-3521,031-280-8629,37.326040789,127.100128014
435,경기도,구갈119안전센터,경기도 용인시 기흥구 신구로 74,031-6190-3531,031-280-8629,37.278933511,127.109860117
436,경기도,보정119안전센터,경기도 용인시 기흥구 보정로114번길2,031-6190-3541,031-280-8629,37.319683757,127.115851338
437,경기도,동백119안전센터,경기도 용인시 기흥구 동백6로 33,031-6190-3551,031-280-8875,37.277724165,127.155213284
438,경기도,기흥119안전센터,경기도 용인시 기흥구 한보라1로 128,031-6190-3561,031-280-8875,37.245032942,127.105909765
439,경기도,성복119안전센터,경기도 용인시 수지구 성복1로 251,031-6190-3571,031-280-8618,37.323066599,127.057847451
440,경기도,비전119안전센터,경기도 평택시 중앙로 273(비전동),031-8053-6501,,36.990459405,127.112843329
441,경기도,안중119안전센터,경기도 평택시 안중읍 안현로서 7길 28,031-8053-6531,,36.981840676,126.924420560
442,경기도,팽성119안전센터,경기도 평택시 팽성읍 팽성송화로 172,031-8053-6511,,36.962134821,127.059094775
443,경기도,포승119안전센터,경기도 평택시 포승읍 평택항로 156번길 11,031-8053-6551,,36.974140992,126.845393684
444,경기도,세교119안전센터,경기도 평택시 세교4로21(세교동),031-8053-6551,,37.006577200,127.086064103
445,경기도,신평119안전센터,경기도 평택시 평택로 2(합정동),031-8053-6561,,36.988620470,127.090162934
446,경기도,신장119안전센터,경기도 평택시 경기대로 1627(신장동),031-685-8501,031-280-8671,37.089600331,127.062331583
447,경기도,진위119안전센터,경기도 평택시 진위면 봉남길30,031-685-8511,031-280-8672,37.100858807,127.087421622
448,경기도,모곡119안전센터,경기도 평택시 산단로 64번길 2(모곡동),031-685-8521,031-280-8673,37.036760828,127.077072228
449,경기도,서탄119안전센터,경기도 평택시 서탄면 서탄로241,031-685-8531,031-280-8674,37.105790974,127.037124946
450,경기도,고덕119안전센터,경기도 평택시 고덕율포1로46(고덕동),031-685-8541,031-280-8675,37.045292382,127.026658764
451,경기도,청북119안전센터,경기도 평택시 청북읍 현곡산단로16,031-685-8551,031-280-8676,37.033750480,126.939185198
452,경기도,소하119안전센터,경기도 광명시 금하로 472,02-2610-3501,031-280-8682,37.448742680,126.885078875
453,경기도,광명119안전센터,경기도 광명시 목감로 306,02-2610-3510,031-280-8683,37.487851521,126.860300177
454,경기도,하안119안전센터,경기도 광명시 범안로 1025,02-2610-3520,031-280-8684,37.461486927,126.877077963
455,경기도,광남119안전센터,경기도 광명시 목감로 34,02-2610-3530,031-280-8685,37.471478092,126.845575057
456,경기도,시흥119안전센터,경기도 시흥시 정왕신길로 206,031-310-0501,031-280-8691,37.349548008,126.739542369
457,경기도,은행119안전센터,경기도 시흥시 대은로 4,031-310-0511,031-280-8692,37.439305653,126.793282462
458,경기도,정왕119안전센터,경기도 공단1대로259번길 1,031-310-0521,031-280-8693,37.335582797,126.729726184
459,경기도,연성119안전센터,경기도 시흥시 새재로 29,031-310-0531,031-280-8694,37.381904302,126.802947048
460,경기도,목감119안전센터,경기도 시흥시 목감우회로 15,031-310-0541,031-280-8881,37.381394283,126.857743977
461,경기도,배곧119안전센터,경기도 시흥시 서울대학로278번길 80,031-310-0551,031-280-8696,37.368581554,126.732305798
462,경기도,오금119안전센터,경기도 군포시 고산로 429,031-479-8501,031-280-8700,37.352571910,126.927121997
463,경기도,산본119안전센터,경기도 군포시 산본로432번길 1,031-479-8511,031-280-8701,37.368272707,126.927243348
464,경기도,송정119안전센터,경기도 군포시 도마교동 487,031-479-8521,031-280-8701,,
465,경기도,향남119안전센터,경기도 화성시 향남읍 향남로 399,031-8012-6501,031-280-8848,37.130799565,126.920703452
466,경기도,팔탄119안전센터,경기도 화성시 팔탄면 구장길 2,031-8012-6342,031-8012-6347,37.161019685,126.904984823
467,경기도,정남119안전센터,경기도 화성시 정남면 정남동로 514,031-8012-6522,031-280-8849,37.165002447,127.002355873
468,경기도,반송119안전센터,경기도 화성시 동탄반석로 188,031-8012-6531,031-280-8850,37.205495992,127.072077103
469,경기도,목동119안전센터,경기도 화성시 동탄신리천로 359,031-8012-6461,031-280-8855,37.183800136,127.118212408
470,경기도,태안119안전센터,경기도 화성시 병점중앙로 148,031-8012-6581,031-280-8851,37.211193410,127.038980534
471,경기도,남양119안전센터,경기도 화성시 주석로 29,031-8012-6551,031-280-8852,37.217841032,126.835142490
472,경기도,봉담119안전센터,경기도 화성시 봉담읍 동화새터길 135,031-8012-6561,031-280-8853,37.215007857,126.962924359
473,경기도,장안119안전센터,경기도 화성시 장안면 3.1만세로 119,031-8012-6571,031-280-8854,37.086344146,126.826121415
474,경기도,새솔119안전센터,경기도 경기 화성시 수노을2로 21,031-8012-6351,031-280-8852,37.284562920,126.815674117
475,경기도,관고119안전센터,경기도 이천시 경충대로 2739,031-645-5463,,37.282149095,127.431808390
476,경기도,대월119안전센터,경기도 이천시 대월면 경충대로 1973,031-645-5512,,37.243299896,127.497057422
477,경기도,장호원119안전센터,경기도 이천시 장호원읍 서동대로8829번길 71,031-645-5525,,37.117081194,127.614739861
478,경기도,마장119안전센터,경기도 이천시 마장면 중앙로 87,031-645-5532,,37.249397455,127.357871410
479,경기도,중앙119안전센터,경기도 김포시 감암로 111,031-980-4501,031-280-8737,37.641567345,126.708513252
480,경기도,양촌119안전센터,경기도 김포시 양곡1로 85,031-980-4511,031-280-8738,37.658080699,126.622325468
481,경기도,마산119안전센터,경기도 김포시 김포한강8로 196,031-980-4571,031-280-8742,37.639674896,126.644292188
482,경기도,대곶119안전센터,경기도 김포시 대곶면 수남로 104,031-980-4561,031-280-8740,37.633481958,126.582485774
483,경기도,통진119안전센터,경기도 김포시 통진읍 김포대로 2250,031-980-4521,031-280-8739,37.690661054,126.596329268
484,경기도,고촌119안전센터,경기도 김포시 고촌읍 은행영사정로 31,031-980-4531,031-280-4530,37.602298548,126.773779748
485,경기도,하성119안전센터,경기도 김포시 하성면 하성로 404,031-980-4541,031-280-8743,37.711277444,126.637666096
486,경기도,초월119안전센터,경기도 광주시 초월읍 무들로 112,031-799-0501,031-280-8762,37.385253460,127.299414690
487,경기도,송정119안전센터,경기도 광주시 수하길 36,031-799-2511,031-280-8763,37.414802233,127.264400376
488,경기도,오포119안전센터,경기도 광주시 오포로 910-5,031-799-2521,031-280-8764,37.371419614,127.233545328
489,경기도,광남119안전센터,경기도 광주시 고불로 277,031-799-2571,031-280-8764,37.398371770,127.208837252
490,경기도,곤지암119안전센터,경기도 광주시 곤지암읍 광여로 160,031-799-2531,031-280-8765,37.348624754,127.363261706
491,경기도,능평119안전센터,경기도 광주시 오포읍 대명대길 30,031-799-2541,031-280-8766,,
492,경기도,도기119안전센터,경기도 안성시 미양로 855,031-678-4502,031-280-8772,37.000418962,127.256029269
493,경기도,미양119안전센터,경기도 안성시 미양면 제2공단3길 8 ,031-678-4511,031-280-8773,36.977589828,127.260493322
494,경기도,죽산119안전센터,경기도 안성시 죽산면 장원공단길 38 ,031-678-4521,031-280-8774,37.068056028,127.423953380
495,경기도,공도119안전센터,경기도 안성시 공도읍 공도로 111 ,031-678-4531,031-280-8775,37.000818863,127.173112483
496,경기도,원곡119안전센터,경기도 안성시 원곡면 원곡물류단지로 162-20,031-678-4541,031-280-8776,37.042073145,127.158221327
497,경기도,신장119안전센터,경기도 하남시 대청로 76 (신장동),031-799-4502,031-799-8782,37.539855966,127.220408180
498,경기도,감일119안전센터,경기도 하남시 감일백제로 77 (감이동),031-799-4512,031-280-8779,37.503205802,127.163069731
499,경기도,덕풍119안전센터,경기도 하남시 덕풍서로 60 (덕풍동),031-799-4532,031-280-8784,37.552271929,127.204444400
500,경기도,미사119안전센터,경기도 하남시 미사강변대로 190 (망월동),031-799-4542,031-280-8779,37.567164547,127.185668499
501,경기도,고천119안전센터,경기도 의왕시 오봉로 9,031-596-0501,031-280-8861,37.344159677,126.974737231
502,경기도,백운119안전센터,경기도 의왕시 안양판교로 187,031-596-0531,031-280-8863,37.390435622,126.992653986
503,경기도,부곡119안전센터,경기도 의왕시 오봉로 289,031-596-0521,031-280-8862,37.327756548,126.952076440
504,경기도,세교119안전센터,경기도 오산시 문헌공로 30,031-8059-7500,031-280-8880,37.175288522,127.053987216
505,경기도,원동119안전센터,경기도 오산시 경기대로 99,031-8059-7520,031-280-8791,37.133603070,127.072256410
506,경기도,청학119안전센터,경기도 오산시 청학로 55-6,031-8059-7510,031-280-8790,37.154717001,127.063903793
507,경기도,월송119안전센터,경기도 여주시 우암로 110,031-887-8500,031-280-8797,37.291395569,127.625966668
508,경기도,가남119안전센터,경기도 여주시 가남읍 일신로 32,031-887-8510,031-280-8798,37.213463348,127.543508708
509,경기도,북내119안전센터,경기도 여주시 북내면 도예로 440,031-887-8520,031-280-8799,37.324715690,127.677888277
510,경기도,금사119안전센터,경기도 여주시 금사면 능북로 898,031-887-8530,031-280-8802,37.387361379,127.532208251
511,경기도,공흥119안전센터,경기도 양평군 양평읍 경강로 2047 ,031-770-0500,031 280-8805,37.500339199,127.507340859
512,경기도,강상119안전센터,경기도 양평군 강상면 송학길 54,031-770-0520,031 280-8806,37.480345523,127.478214315
513,경기도,용문119안전센터,경기도 양평군 용문면 연수로 64,031-770-0530,031 280-8807,37.493028323,127.590311701
514,경기도,양서119안전센터,경기도 양평군 양서면 두물머리길 43,031-770-0570,031-280-8882,37.540338646,127.318934813
515,경기도,중앙119안전센터,경기도 과천시 통영로 12,02-331-4501,031-280-8821,37.428516612,126.990618498
516,경기도,과천119안전센터,경기도 과천시 궁말로30,02-331-4511,031-280-8822,37.442317979,127.008877403
517,경기북부,가평119안전센터,경기도 가평군 가평읍 가화로 36번길,031-580-0501,031-280-8869,,
518,경기북부,설악119안전센터,경기도 가평군 설악면 한서로 7번길,031-580-0531,031-280-8866,37.660220994,127.502577171
519,경기북부,조종119안전센터,경기도 가평군 조종면 현창로 14번길,031-580-0521,031-280-8870,37.819653774,127.348978924
520,경기북부,능곡119안전센터,경기도 고양시 덕양구 토당로 48,031-931-0511,031-280-8558,37.620271164,126.820727009
521,경기북부,삼송119안전센터,경기도 고양시 덕양구 오금로 14,031-931-0521,031-280-8559,37.663057611,126.895045009
522,경기북부,원당119안전센터,경기도 고양시 덕양구 고양대로 1342,031-931-0501,031-280-8557,37.655093332,126.833206282
523,경기북부,행신119안전센터,경기도 고양시 덕양구 소원로 181번길 52,031-931-0531,031-280-8560,37.615272712,126.843350020
524,경기북부,화전119안전센터,경기도 고양시 덕양구 중앙로 78,031-931-0541,031-280-8561,37.596521620,126.877098395
525,경기북부,갈매119안전센터,경기도 구리시 산마루로 68,031-570-6529,031-280-8727,37.629516677,127.120639680
526,경기북부,교문119안전센터,경기도 구리시 아차산로 487번길 46,031-570-6509,031-280-8727,37.598293758,127.127834324
527,경기북부,인창119안전센터,경기도 구리시 건원대로 34번길 28,031-570-6519,031-280-8727,37.604082400,127.141940099
528,경기북부,가운119안전센터,경기도 남양주시 가운로 16,031-590-0572,031-280-8656,37.604843410,127.158411298
529,경기북부,다산119안전센터,경기도 남양주시 다산중앙로146번길 76,031-590-0582,031-280-8646,37.626753904,127.160557233
530,경기북부,별내119안전센터,경기도 남양주시 송산로 41,031-590-0562,031-280-8654,37.645863614,127.129849072
531,경기북부,오남119안전센터,경기도 남양주시 오남읍 진건오남로 772,031-590-0592,031-280-8655,37.696845477,127.205759911
532,경기북부,와부119안전센터,경기도 남양주시 와부읍 덕소로 97번길 34-2,031-590-0532,031-280-8653,37.585803553,127.216192148
533,경기북부,진건119안전센터,경기도 남양주시 진건읍 진건오남로 112-21,031-590-0552,031-280-8651,37.660138395,127.180254261
534,경기북부,진접119안전센터,경기도 남양주시 진접읍 금강로 1509-25,031-590-0522,031-280-8650,37.725599607,127.189759105
535,경기북부,평내119안전센터,경기도 남양주시 평내로 25,031-590-0502,031-280-8649,37.643324852,127.232152331
536,경기북부,화도119안전센터,경기도 남양주시 화도읍 수레로 1260번길 25,031-590-0542,031-280-8652,37.650095969,127.304800033
537,경기북부,불현119안전센터,경기도 동두천시 지행로 6,031-830-5501,031-280-8510,37.891793944,127.048027851
538,경기북부,소요119안전센터,경기도 동두천시 평화로 2910번길 65,031-830-5511,031-280-8510,37.946401257,127.065131131
539,경기북부,고읍119안전센터,경기도 양주시 고덕로 266,031-849-8531,031-280-8839,37.801834173,127.069959462
540,경기북부,광적119안전센터,경기도 양주시 광적면 광적로 55,031-849-8521,031-280-8838,37.823452148,126.981573547
541,경기북부,남면119안전센터,경기도 양주시 남면 삼육사로 247,031-849-8541,031-280-8840,37.901746865,126.986470141
542,경기북부,백석119안전센터,경기도 양주시 백석읍 꿈나무로 156,031-849-8501,031-280-8836,37.795803871,126.989529086
543,경기북부,옥정119안전센터,경기도 양주시 옥정로8길 52,031-849-8561,031-280-8876,37.827442979,127.094040664
544,경기북부,장흥119안전센터,경기도 양주시 장흥면 일영로 794,031-849-8551,031-280-8841,37.712045532,126.936247179
545,경기북부,회천119안전센터,경기도 양주시 화합로 1272,031-849-8511,031-280-2237,37.846148944,127.055573859
546,경기북부,군남119안전센터,경기도 연천군 군남면 군남로 338,031-830-0541,031-280-8832,38.077827212,127.018931115
547,경기북부,백학119안전센터,경기도 연천군 백학면 백학산단길 16,031-830-0531,031-830-0539,38.017413083,126.913948066
548,경기북부,연천119안전센터,경기도 연천군 연천읍 차현로 92,031-830-0521,031-830-0529,38.099625755,127.076836986
549,경기북부,은대119안전센터,경기도 연천군 전곡읍 평화로 892,031-830-0501,031-280-8830,38.048248743,127.068378674
550,경기북부,전곡119안전센터,경기도 연천군 전곡읍 전곡로 27,031-830-0511,031-830-0519,38.015982823,127.071921276
551,경기북부,금오119안전센터,경기도 의정부시 금오로23번길 22-40,031-849-7501,031-280-8641,37.755116512,127.069787939
552,경기북부,녹양119안전센터,경기도 의정부시 체육로 248,031-849-7541,031-280-8640,37.760932707,127.035059704
553,경기북부,송산119안전센터,경기도 의정부시 충의로 90,031-849-7531,031-280-8643,37.739609098,127.086652055
554,경기북부,호원119안전센터,경기도 의정부시 평화로322번길 7,031-849-7521,031-280-8642,37.720804899,127.048196287
555,경기북부,흥선119안전센터,경기도 의정부시 의정로 48,031-849-7511,031-280-8640,37.737317738,127.035792626
556,경기북부,고봉119안전센터,경기도 고양시 일산동구 성현로 429,031-930-0551,031-280-8569,37.699346908,126.830698910
557,경기북부,대화119안전센터,경기도 고양시 일산서구 중앙로 1630,031-930-0571,031-280-8572,37.679021303,126.741918007
558,경기북부,문화119안전센터,경기도 고양시 일산동구 태극로 7,031-930-0581,031-280-8883,37.663791548,126.750724881
559,경기북부,백석119안전센터,경기도 고양시 일산동구 장백로 78,031-930-0511,031-280-8568,37.644206831,126.785013350
560,경기북부,장항119안전센터,경기도 고양시 일산동구 중앙로 1325,031-930-0501,031-280-8567,37.663314952,126.769718277
561,경기북부,주엽119안전센터,경기도 고양시 일산서구 주화로 82,031-930-0521,031-280-8570,37.670229196,126.759099572
562,경기북부,중산119안전센터,경기도 고양시 일산동구 중산로 218,031-930-0541,031-280-8571,37.691437316,126.780510376
563,경기북부,풍동119안전센터,경기도 고양시 일산동구 숲속마을로 10,031-930-0591,031-280-8573,37.667199860,126.802432966
564,경기북부,광탄119안전센터,경기도 파주시 광탄면 혜음로 1040,031-956-9532,031-956-9539,37.775751504,126.851311834
565,경기북부,교하119안전센터,경기도 파주시 청석로 301,031-956-9562,031-956-9569,37.729024190,126.717249745
566,경기북부,금촌119안전센터,경기도 파주시 가나무로 136,031-956-9512,031-956-9519,37.753878743,126.780455677
567,경기북부,법원119안전센터,경기도 파주시 법원읍 화합로 141,031-956-9522,031-956-9529,37.846799112,126.882410190
568,경기북부,운정119안전센터,경기도 파주시 와석순환로 90,031-956-9584,031-956-9589,37.711854081,126.749750100
569,경기북부,월롱119안전센터,경기도 파주시 월롱면 엘씨디로 310,031-956-9552,031-956-9559,37.815208286,126.752547954
570,경기북부,적성119안전센터,경기도 파주시 적성면 감악산로 1220,031-956-9572,031-956-9579,37.955490569,126.928334520
571,경기북부,탄현119안전센터,경기도 파주시 탄현면 필승로 458,031-956-9545,031-956-9549,37.781407116,126.687285932
572,경기북부,통일119안전센터,경기도 파주시 통일로 1564,031-956-9501,031-956-9509,37.847486064,126.789459722
573,경기북부,가산119안전센터,경기도 포천시 가산면 포천로 890,031-538-5541,031-280-8754,37.848489398,127.194506466
574,경기북부,군내119안전센터,경기도 포천시 군내면 호국로 1538 ,031-538-5511,031-280-8750,37.891375050,127.202551978
575,경기북부,내촌119안전센터,경기도 포천시 내촌면 내촌로 120,031-538-5551,031-280-8755,37.790412997,127.230504515
576,경기북부,선단119안전센터,경기도 포천시 호국로 1007-33,031-538-5571,031-280-8898,37.855307402,127.164919448
577,경기북부,소흘119안전센터,경기도 포천시 소흘읍 송우로 182,031-538-5511,031-280-8751,37.836071969,127.131742735
578,경기북부,영북119안전센터,경기도 포천시 영북면 영북로 144,031-538-5521,031-280-8752,38.087090851,127.275457022
579,경기북부,영중119안전센터,경기도 포천시 영중면 양문로 66,031-538-5561,031-280-8756,37.998515642,127.242747743
580,경기북부,일동119안전센터,경기도 포천시 일동면 영일로 978,031-538-5531,031-280-8753,37.948049531,127.309961604
581,강원도,경포119안전센터,강원특별자치도 강릉시 해안로 502,033-644-2119,033-610-8539,37.805017707,128.905195377
582,강원도,내곡119안전센터,강원특별자치도 강릉시 범일로 660,033-647-7119,033-610-8549,37.744850137,128.884710646
583,강원도,옥계119안전센터,강원특별자치도 강릉시 옥계면 현내시장길 163,033-534-0119,033-610-8579,37.602316704,129.030129709
584,강원도,옥천119안전센터,강원특별자치도 강릉시 용지로 139,033-648-2119,033-610-8529,37.761078271,128.902503828
585,강원도,유천119안전센터,강원특별자치도 강릉시 선수촌로 64-28,033-645-0119,033-610-8519,37.757031952,128.872663512
586,강원도,주문진119안전센터,강원특별자치도 강릉시 연곡면 연주로 226,033-662-2119,033-610-8559,37.874117096,128.831562377
587,강원도,포남119안전센터,강원특별자치도 강릉시 하평2길 23,033-653-0119,033-610-8569,37.772313731,128.912906028
588,강원도,간성119안전센터,강원특별자치도 고성군 간성읍 수성로 37-11,033-680-7513,033-680-7519,38.376856527,128.474091901
589,강원도,거진119안전센터,강원특별자치도 고성군 거진읍 수외길 19,033-680-7522,033-680-7529,38.441042294,128.452634000
590,강원도,동광119안전센터,강원특별자치도 고성군 토성면 동해대로 5320,033-680-7532,033-680-7539,38.281196860,128.549169020
591,강원도,묵호119안전센터,강원특별자치도 동해시 일출로 29,033-532-2119,033-530-8529,37.551608640,129.110670414
592,강원도,북삼119안전센터,강원특별자치도 동해시 효자남길 33-10,033-521-3119,033-530-8539,37.489260309,129.106862441
593,강원도,북평119안전센터,강원특별자치도 동해시 공단1로 21,033-521-5119,033-530-8549,37.471692577,129.143163631
594,강원도,천곡119안전센터,강원특별자치도 동해시 천곡로 120,033-533-3119,033-530-8129,37.524431276,129.118639868
595,강원도,근덕119안전센터,강원특별자치도 삼척시 근덕면 교가길 37,033-574-1119,033-570-8549,37.380167378,129.228088232
596,강원도,도계119안전센터,강원특별자치도 삼척시 도계읍 도계강변3길 16,033-541-2119,033-570-8529,37.240837823,129.045789665
597,강원도,봉황119안전센터,강원특별자치도 삼척시 봉황로 101,033-570-8510,033-570-8519,37.446595476,129.171238242
598,강원도,원덕119안전센터,강원특별자치도 삼척시 원덕읍 삼척로 581,033-572-6119,033-570-8539,37.185789712,129.327090355
599,강원도,노학119안전센터,강원특별자치도 속초시 미시령로 3226,033-636-2119,033-630-2519,38.203642465,128.560163526
600,강원도,설악119안전센터,강원특별자치도 속초시 청봉로5길 37,033-636-7119,033-630-2529,38.166072237,128.525448649
601,강원도,영랑119안전센터,강원특별자치도 속초시 번영로 188,033-632-9119,033-630-2539,38.215419203,128.590318090
602,강원도,양구119안전센터,강원특별자치도 양구군 양구읍 중심로 92,033-480-4514,033-480-4519,38.099072252,127.993962933
603,강원도,강현119안전센터,강원특별자치도 양양군 강현면 장산1길 26,033-673-9119,033-639-7539,38.147791338,128.597569622
604,강원도,양양119안전센터,강원특별자치도 양양군 양양읍 남대천로 33,033-639-7511,033-639-7519,38.067413262,128.622516056
605,강원도,하조대119안전센터,강원특별자치도 양양군 현북면 동해대로 1155-33,033-672-2119,033-639-7529,37.995071976,128.737960969
606,강원도,산솔119안전센터,강원특별자치도 영월군 산솔면 응고개길 10-17,033-378-4119,033-371-7539,37.142549170,128.679805910
607,강원도,영월119안전센터,강원특별자치도 영월군 영월읍 영월로 1863,033-374-2119,033-371-7549,37.185451930,128.458419349
608,강원도,주천119안전센터,강원특별자치도 영월군 주천면 송학주천로 1467-15,033-372-7119,033-371-7529,37.274807292,128.269767415
609,강원도,기업119안전센터,강원특별자치도 원주시 기업도시로 220,033-731-6119,033-769-1479,37.371331167,127.872040858
610,강원도,단구119안전센터,강원특별자치도 원주시 강변로 255,033-763-1119,033-769-1539,37.330444291,127.961434467
611,강원도,명륜119안전센터,강원특별자치도 원주시 남원로 467,033-732-0119,033-769-1592,37.327029049,127.942774125
612,강원도,문막119안전센터,강원특별자치도 원주시 문막읍 문막시장1길 90,033-735-0119,033-769-1579,37.303462941,127.814544973
613,강원도,신림119안전센터,강원특별자치도 원주시 신림면 치악로 27,033-763-8118,033-769-1549,37.229748083,128.079042732
614,강원도,우산119안전센터,강원특별자치도 원주시 우산공단길 9,033-742-6119,033-742-1559,37.374095766,127.941824603
615,강원도,태장119안전센터,강원특별자치도 원주시 태장공단길 4,033-734-0119,033-769-1569,37.401503943,127.952632993
616,강원도,학성119안전센터,강원특별자치도 원주시 학성길 122,033-732-4119,033-769-1529,37.353702262,127.944848212
617,강원도,혁신119안전센터,강원특별자치도 원주시 동부순환로 201(반곡동),033-769-1592,033-769-1599,37.333802545,127.972797638
618,강원도,흥업119안전센터,강원특별자치도 원주시 흥업면 북원로 1569-81,033-765-2119,033-769-1589,37.293470444,127.909827667
619,강원도,기린119안전센터,강원특별자치도 인제군 기린면 대내로 34-14,033-461-5119,033-460-9539,37.964824155,128.318449769
620,강원도,원통119안전센터,강원특별자치도 인제군 북면 원통로 301,033-461-3119,033-460-9529,38.127876027,128.215703356
621,강원도,인제119안전센터,강원특별자치도 인제군 인제읍 비봉로 44번길 71,033-460-9518,,38.061316288,128.168632699
622,강원도,고한119안전센터,강원특별자치도 정선군 고한읍 강원남로 6455,033-591-3119,033-560-6539,37.194938676,128.869908039
623,강원도,사북119안전센터,강원특별자치도 정선군 사북읍 하이원길 29,033-592-2119,033-560-6559,37.224176236,128.815629267
624,강원도,신동119안전센터,강원특별자치도 정선군 신동읍 의림로 342,033-378-0119,033-560-6529,37.220828960,128.647176712
625,강원도,임계119안전센터,강원특별자치도 정선군 임계면 송계4길 9,033-562-6119,033-560-6549,37.495249730,128.852773099
626,강원도,조양119안전센터,강원특별자치도 정선군 정선읍 녹송로 27,033-560-6511,033-560-6519,37.379657828,128.671870915
627,강원도,갈말119안전센터,강원특별자치도 철원군 갈말읍 명성로 229,033-450-2540,033-450-2559,38.152377549,127.306905329
628,강원도,김화119안전센터,강원특별자치도 철원군 서면 약수로 76,033-450-2530,033-450-2549,38.245727123,127.435265070
629,강원도,동송119안전센터,강원특별자치도 철원군 동송읍 금학로 251길 17,033-450-2520,033-450-2529,,
630,강원도,태봉119안전센터,강원특별자치도 철원군 갈말읍 태봉로 1504,033-450-2510,033-450-2519,38.185970330,127.324122675
631,강원도,강촌119안전센터,강원특별자치도 춘천시 소주고개로 680,033-262-2119,033-248-9559,37.785100196,127.647823294
632,강원도,대룡119안전센터,강원특별자치도 춘천시 고은길 9,033-262-7119,033-248-9549,37.846206664,127.771122034
633,강원도,소양119안전센터,강원특별자치도 춘천시 가연길 16,033-256-0119,033-248-9529,37.878027281,127.721913201
634,강원도,신북119안전센터,강원특별자치도 춘천시 신북읍 신북로 35,033-243-5119,033-248-9569,37.928509048,127.751262082
635,강원도,효자119안전센터,강원특별자치도 춘천시 효명길 8,033-251-0119,033-248-9539,37.871025215,127.726384472
636,강원도,후평119안전센터,강원특별자치도 춘천시 후석로 446,033-241-0119,033-248-9519,37.889310849,127.742940297
637,강원도,장성119안전센터,강원특별자치도 태백시 석공길 16-9,033-581-6119,033-550-8529,37.103426904,129.008027791
638,강원도,철암119안전센터,강원특별자치도 태백시 동태백로 552,033-582-9119,033-550-8539,37.121022079,129.044156833
639,강원도,화전119안전센터,강원특별자치도 태백시 태백로 814,033-553-6119,033-550-8549,37.180602356,128.984252762
640,강원도,황지119안전센터,강원특별자치도 태백시 태백로 1120,033-552-2119,033-550-8519,37.158688213,128.989185094
641,강원도,대관령119안전센터,강원특별자치도 평창군 대관령면 올림픽로 62-20,033-335-5119,033-339-8549,37.672582066,128.701202300
642,강원도,대화119안전센터,강원특별자치도 평창군 대화면 평창대로 934,033-333-2119,033-339-8559,37.503115579,128.454301959
643,강원도,봉평119안전센터,강원특별자치도 평창군 봉평면 기풍로 107-6,033-336-0119,033-339-8539,37.612367115,128.377684730
644,강원도,진부119안전센터,강원특별자치도 평창군 진부면 진부로 37,033-335-7119,033-339-8529,37.644798465,128.567518404
645,강원도,평창119안전센터,강원특별자치도 평창군 평창읍 살구실길 10,033-339-8212,033-339-8209,37.378128308,128.389885251
646,강원도,서석119안전센터,강원특별자치도 홍천군 서석면 풍암길2길 9,033-433-4119,033-439-2539,37.714484626,128.187761056
647,강원도,양덕원119안전센터,강원특별자치도 홍천군 남면 시동로 46,033-432-4119,033-439-2529,37.611520050,127.770386355
648,강원도,팔봉119안전센터,강원특별자치도 홍천군 서면 팔봉산로 523,033-434-0119,033-439-2549,37.680185109,127.661831572
649,강원도,홍천119안전센터,강원특별자치도 홍천군 홍천읍 공작산로 99,033-435-0119,033-439-2129,37.691543341,127.902385204
650,강원도,사내119안전센터,강원특별자치도 화천군 문화마을1길 6,033-440-7520,033-440-7529,38.068101967,127.524967721
651,강원도,화천119안전센터,강원특별자치도 화천군 하남면 위라리길 47,033-440-7510,033-440-7519,38.097806027,127.713393677
652,강원도,공근119안전센터,강원특별자치도 횡성군 공근면 영서로 130-5,033-344-3119,033-340-9549,37.526472446,127.959402073
653,강원도,둔내119안전센터,강원특별자치도 횡성군 둔내면 고원남로 42,033-342-1119,033-340-9529,37.506546016,128.212283769
654,강원도,우천119안전센터,강원특별자치도 횡성군 우천면 서동로 199,033-342-6119,033-340-9539,37.447394892,128.075079730
655,강원도,횡성119안전센터,강원특별자치도 횡성군 횡성읍 문예로 157,033-340-9511,033-340-9129,37.485382261,127.973953963
656,충청북도,영운119안전센터,충청북도 청주시 상당구 영운로 61,043-251-0220,043-251-0239,36.620444592,127.494487460
657,충청북도,사천119안전센터,충청북도 청주시 청원구 밀레니엄1로 63,043-251-0240,043-251-0249,36.679978143,127.475663955
658,충청북도,북문119안전센터,충청북도  청주시 상당구 상당로 168,043-251-0255,043-251-0259,36.643561509,127.490222524
659,충청북도,문의119안전센터,충청북도  청주시 상당구 문의면 문의시내1길 8,043-251-0265,043-251-0269,36.517827910,127.496210446
660,충청북도,내수119안전센터,충청북도  청주시 청원구 내수읍 청암로80,043-251-0275,043-251-0279,36.724573888,127.539036037
661,충청북도,오창119안전센터,충청북도  청주시 청원구 오창읍 중심상업2로 30,043-251-0285,043-251-0289,36.712782604,127.432422983
662,충청북도,가경119안전센터,충청북도 청주시 흥덕구 가경로 143,043-249-9804,043-249-9268,36.627431633,127.437229182
663,충청북도,복대119안전센터,충청북도  청주시 흥덕구 공단로 92,043-249-9822,043-265-0119,36.639876692,127.439724585
664,충청북도,산남119안전센터,충청북도  청주시 서원구 산미로 70,043-249-9837,043-283-0119,36.604001488,127.470451405
665,충청북도,사직119안전센터,충청북도  청주시 서원구 사직대로 229,043-249-9852,043-263-0119,36.636568948,127.473423232
666,충청북도,남이119안전센터,충청북도  청주시 서원구 청남로 866,043-249-9867,043-260-6119,36.530724761,127.428776409
667,충청북도,오송119안전센터,충청북도  청주시 흥덕구 오송생명3로 71-5,043-249-9882,043-239-2119,36.631647694,127.326850330
668,충청북도,목행119안전센터,충청북도 충주시 목행산단7로 9,043-841-3331,043-841-3329,37.003265416,127.920268344
669,충청북도,호암119안전센터,충청북도  충주시 호암대로 13,043-841-3341,043-844-8119,36.959243997,127.927949154
670,충청북도,연수119안전센터,충청북도  충주시 동수10길 1,043-841-3382,043-857-7921,36.982824746,127.935286156
671,충청북도,서충주119안전센터,충청북도  충주시 기업도시2로 30,043-841-3391,043-841-3395,37.002291726,127.829660366
672,충청북도,수안보119안전센터,충청북도  충주시 수안보면 관동길 9-7,043-841-3351,043-846-1119,36.847087736,127.994099215
673,충청북도,주덕119안전센터,충청북도  충주시 주덕읍 신양로 35,043-841-3361,043-846-4119,36.971121178,127.791016445
674,충청북도,앙성119안전센터,충청북도  충주시 앙성면 가곡로 1019,043-841-3371,043-847-0118,37.108690837,127.752257960
675,충청북도,의림지119안센터,충청북도 제천시 신죽하로 164,043-740-7111,043-741-7309,37.160619807,128.212845048
676,충청북도,화산119안전센터,충청북도  제천시 강명길 17,043-641-7311,043-647-0119,37.118662231,128.204070958
677,충청북도,봉양119안전센터,충청북도  제천시 봉양읍 북부로1433,043-641-7341,043-648-6319,37.131578884,128.128625976
678,충청북도,보은119안전센터,충청북도 보은군 보은읍 남부로 4415,043-773-0210,043-773-0219,36.477001095,127.722028938
679,충청북도,속리산119안전센터,충청북도  보은군 속리산면 법주사로 278,043-773-0230,043-773-0239,36.532080281,127.823812601
680,충청북도,구병산119안전센터,충청북도  보은군 마로면 관기송현로 48,043-773-0250,043-773-0259,36.436649821,127.814481667
681,충청북도,옥천119안전센터,충청북도 옥천군 옥천읍 중앙로 132,043-730-1901,043-730-1909,36.307962548,127.574199719
682,충청북도,청산119안전센터,충청북도  옥천군 청산면 남부로 2306,043-730-1921,043-730-1929,36.345065086,127.781338140
683,충청북도,영동119안전센터,충청북도 영동군 영동읍 영동황간로 174,043-641-7119,043-740-7129,36.165641763,127.789066809
684,충청북도,황간119안전센터,충청북도  영동군 황간면 황간로 132,043-740-7141,043-740-7159,36.235391049,127.903802634
685,충청북도,학산119안전센터,충청북도  영동군 학산면 서산로 92,043-740-7171,043-740-7179,36.099659791,127.685778903
686,충청북도,증평119안전센터,충청북도  증평군 충청대로 1789,043-836-4119,043-830-0155,36.787846771,127.583754735
687,충청북도,진천119안전센터,충청북도 진천군 진천읍 진광로 93,043-539-8201,043-539-8209,36.872649273,127.441201614
688,충청북도,덕산119안전센터,충청북도 진천군 덕산읍 초금로 606-1,043-539-8241,043-539-8249,36.899270177,127.510660830
689,충청북도,광혜원119안전센터,충청북도 진천군 광혜원면 화랑길 99,043-539-8221,043-539-8229,36.991807011,127.436680332
690,충청북도,괴산119안전센터,충청북도 괴산군 괴산읍 괴강로 69,043-760-0214,043-760-0219,36.807584473,127.801430939
691,충청북도,청천119안전센터,충청북도  괴산군 청천면 선평길 78-9,043-760-0235,043-760-0239,36.658101061,127.734222596
692,충청북도,금왕119안전센터,충청북도 음성군 금왕읍 응천서길 11,043-877-0119,043-877-0129,36.989327718,127.594995479
693,충청북도,음성119안전센터,충청북도  음성군 음성읍 음성로 122,043-872-2119,043-873-6119,36.930359018,127.678540553
694,충청북도,대소119안전센터,충청북도  음성군 대소면 오산로 74,043-881-7119,043-878-1196,36.969425868,127.485900569
695,충청북도,감곡119안전센터,충청북도  음성군 감곡면 음성로 2652,043-881-3119,043-878-1197,37.112282702,127.643634701
696,충청북도,삼성119안전센터,충청북도  음성군 삼성면 금일로 831,043-878-5119,043-878-0126,37.016534507,127.503347595
697,충청북도,단양119안전센터,충청북도 단양군 단양읍 삼봉로 421-56,043-767-4210,043-767-4219,36.989069512,128.356386683
698,충청북도,매포119안전센터,충청북도  단양군 매포읍 평동4로 79,043-767-4237,043-767-4239,37.031149941,128.294853772
699,충청북도,옥산119안전센터 ,충청북도 청주시 흥덕구 오송가락로 1015,043-249-9180,043-268-1121,36.672100200,127.389310648
700,충청남도,두마119안전센터,충청남도 계룡시 두마면 사계로 170,042-540-5363,042-540-0411,36.261974861,127.274440106
701,충청남도,엄사119안전센터,충청남도 계룡시 엄사면 문화로 32,042-540-5331,042-540-5349,36.274362679,127.233135826
702,충청남도,계룡119안전센터,충청남도 공주시 계룡면 월암송정길 18,041-851-0422,041-852-3119,36.361332365,127.141429156
703,충청남도,동학사119안전센터,충청남도 공주시 반포면 동학사1로 110,041-851-0402,041-822-6108,36.363734932,127.253993097
704,충청남도,신관119안전센터,충청남도 공주시 의당로 31,041-851-0382,041-852-7119,36.475039783,127.129886537
705,충청남도,웅진119안전센터,충청남도 공주시 무령로 55,041-851-0332,041-851-0349,36.459448663,127.108349414
706,충청남도,유구119안전센터,충청남도 공주시 유구읍 유구외곽로 368,041-851-0362,041-841-7119,36.539949905,126.945954701
707,충청남도,정안119안전센터,충청남도 공주시 정안면 광정장터길 18,041-851-0442,,36.608682766,127.122657426
708,충청남도,금산119안전센터,충청남도 금산군 금산읍 삼풍로 2,041-750-1332,,36.099936761,127.480112382
709,충청남도,복진119안전센터,충청남도 금산군 진산면 읍내로 47-1,041-750-1382,041-752-1479,36.143199433,127.368363344
710,충청남도,추부119안전센터,충청남도 금산군 추부면 삼육로 47,041-750-1362,041-754-4399,36.193959255,127.468252541
711,충청남도,강경119안전센터,충청남도 논산시 강경읍 동안로 3,041-730-0362,041-745-0729,36.157821079,127.018226620
712,충청남도,내동119안전센터,충청남도 논산시 대학로 17,041-730-0333,041-730-0349,36.178259460,127.100382252
713,충청남도,반월119안전센터,충청남도 논산시 해월로 155,041-730-0404,041-733-3119,36.204559466,127.084240497
714,충청남도,연무119안전센터,충청남도 논산시 연무읍 동안로 1137,041-730-0382,041-742-7119,36.126521845,127.128254886
715,충청남도,연산119안전센터,충청남도 논산시 연산면 관창로 54,041-730-0429,041-735-9375,36.212471564,127.182778080
716,충청남도,기지시119안전센터,충청남도 당진시 송악읍 틀모시로 844,041-350-5442,041-352-6319,36.908494437,126.690828408
717,충청남도,당진119안전센터,충청남도 당진시 역천로 838,041-350-5338,041-350-5349,36.885648290,126.617936445
718,충청남도,석문119안전센터,충청남도 당진시 석문면 보덕포로 1069-21,041-350-5362,041-352-6789,36.985203981,126.588749369
719,충청남도,송악119안전센터,충청남도 당진시 송악읍 송악로 1019,041-350-5402,041-356-0016,36.960165499,126.768306526
720,충청남도,신평119안전센터,충청남도 당진시 신평면 신평길 133,041-350-5422,041-362-7119,36.881074121,126.777148513
721,충청남도,합덕119안전센터,충청남도 당진시 우강면 중방로 2,041-350-5382,041-363-3583,36.812819790,126.766654399
722,충청남도,명천119안전센터,충청남도 보령시 성주산로 63,041-930-0332,041-930-0349,36.333380334,126.608391084
723,충청남도,신흑119안전센터,충청남도 보령시 대천항로 205,041-930-0362,041-931-0217,36.316748519,126.514327268
724,충청남도,오천119안전센터,충청남도 보령시 오천면 충청수영로 701,041-930-0405,041-934-1190,36.437152454,126.530361200
725,충청남도,웅천119안전센터,충청남도 보령시 웅천읍 충서로 947,041-930-0383,041-932-5119,36.235154717,126.597142209
726,충청남도,주포119안전센터,충청남도 보령시 주포면 질재로 47-16,041-930-0424,041-930-0423,36.415287435,126.587586420
727,충청남도,백제119안전센터,충청남도 부여군 규암면 계백로 17,041-830-0332,041-830-0349,36.275033754,126.882228800
728,충청남도,사비119안전센터,충청남도 부여군 부여읍 쌍북리 184-11,041-830-0362,041-835-2119,,
729,충청남도,외산119안전센터,충청남도 부여군 외산면 만수로 235,041-830-0422,041-836-2119,36.302018133,126.705833685
730,충청남도,임천119안전센터,충청남도 부여군 임천면 성흥로179번길 1,041-830-0402,041-833-5119,36.184163371,126.896509422
731,충청남도,홍산119안전센터,충청남도 부여군 홍산면 북촌리 229-2,041-830-0382,041-835-9119,,
732,충청남도,대산119안전센터,충청남도 서산시 대산읍 망일산로 831-15,041-689-0362,041-681-5019,36.940861059,126.439536458
733,충청남도,동부119안전센터,충청남도 서산시 학동3로 52,041-689-0382,041-668-4118,36.789909257,126.459621361
734,충청남도,부석119안전센터,충청남도 서산시 부석면 강경벌로 10,041-689-0422,041-669-1196,36.717493638,126.393683884
735,충청남도,성연119안전센터,충청남도 서산시 성연면 성연5로 92-31,041-689-0442,041-664-3119,36.826014065,126.446922183
736,충청남도,예천119안전센터,충청남도 서산시 호수공원 14로 26-4,041-689-0332,041-689-0349,36.773241862,126.444874465
737,충청남도,해미119안전센터,충청남도 서산시 해미면 성지3길 29,041-689-0402,041-688-2118,36.709806999,126.542801592
738,충청남도,비인119안전센터,충청남도 서천군 비인면 비인로 141,041-955-0382,041-952-0149,36.138288418,126.605219344
739,충청남도,서면119안전센터,충청남도 서천군 서면 부사로 153,041-955-0402,041-951-3911,36.163148210,126.531592015
740,충청남도,서천119안전센터,충청남도 서천군 서천읍 충절로49번길 33-8,041-955-0362,041-953-1190,36.076911024,126.688608345
741,충청남도,장항119안전센터,충청남도 서천군 장항읍 장항로 37,041-955-0332,041-955-0349,36.013497879,126.683025587
742,충청남도,판교119안전센터,충청남도 서천군 판교면 대백제로 1953-24,041-955-0442,041-951-0119,36.157915665,126.689818610
743,충청남도,한산119안전센터,충청남도 서천군 한산면 충절로 1164,041-955-0422,041-952-1110,36.083114558,126.806211792
744,충청남도,둔포119안전센터,충청남도 아산시 충무로 1848,041-538-0362,041-531-8119,36.931268607,127.042772843
745,충청남도,모종119안전센터,충청남도 아산시 모종로 77,041-538-0332,041-538-0219,36.786051826,127.025751748
746,충청남도,배방119안전센터,충청남도 아산시 배방읍 배방로 38,041-538-0422,041-534-1121,36.773868935,127.053886957
747,충청남도,신창119안전센터,충청남도 아산시 신창면 순천향로 48,041-538-0382,041-541-2019,36.771217930,126.935389006
748,충청남도,인주119안전센터,충청남도 아산시 인주면 공세길 19,041-538-0402,041-534-5119,36.880493947,126.910009691
749,충청남도,장재119안전센터,충청남도 아산시 배방읍 용연로 88,041-538-0462,041-548-0470,36.789042795,127.090531422
750,충청남도,탕정119안전센터,충청남도 아산시 탕정면 탕정면로 26,041-538-0442,041-546-1119,36.798488050,127.060001918
751,충청남도,금오119안전센터,충청남도 예산군 예산읍 예당관광로 760,041-330-4362,041-335-3119,36.678525465,126.827137534
752,충청남도,덕산119안전센터,충청남도 예산군 덕산면 도청대로 1160,041-330-4402,041-338-4119,36.704840748,126.673197255
753,충청남도,삽교119안전센터,충청남도 예산군 삽교읍 삽교로1길 34,041-330-4382,041-338-3119,36.688979699,126.738360008
754,충청남도,오가119안전센터,충청남도 예산군 오가면 오가중앙로 111,041-330-4332,041-330-4349,36.686563245,126.801392692
755,충청남도,구성119안전센터,충청남도 천안시 동남구 천안대로 580,041-570-0330,041-570-0349,36.800187311,127.165317590
756,충청남도,독립119안전센터,충청남도 천안시 동남구 목천읍 독립기념관로 1,041-570-0360,041-557-3119,36.780148108,127.228582023
757,충청남도,병천119안전센터,충청남도 천안시 동남구 병천면 아우내순대길 78,041-570-0380,041-569-0119,36.764350492,127.301021097
758,충청남도,청당119안전센터,충청남도 천안시 동남구 청수14로 91,041-570-0400,041-553-1192,36.785817225,127.156146725
759,충청남도,풍세119안전센터,충청남도 천안시 동남구 풍세면 풍세로 89,041-570-0420,,36.722542963,127.119765245
760,충청남도,두정119안전센터,충청남도 천안시 서북구 1공단2길 13,041-360-0400,041-565-2119,36.827841885,127.146280347
761,충청남도,불당119안전센터,충청남도 천안시 서북구 불당23로 62,041-360-0490,,36.817826069,127.107730032
762,충청남도,서부119안전센터,충청남도 천안시 서북구 양지18길 22,041-360-0380,041-576-2110,36.812269549,127.138785121
763,충청남도,성거119안전센터,충청남도 천안시 서북구 성거읍 천흥8길 11,041-360-0360,041-622-0119,36.883291402,127.207871950
764,충청남도,성환119안전센터,충청남도 천안시 서북구 성환읍 성환1로 395,041-360-0420,041-583-2119,36.927660570,127.131169990
765,충청남도,쌍용119안전센터,충청남도 천안시 서북구 월봉로 78,041-360-0440,041-577-3119,36.797597448,127.118315772
766,충청남도,입장119안전센터,충청남도 천안시 서북구 입장면 망향로 1107,041-360-0460,041-584-5119,36.909036681,127.227266190
767,충청남도,직산119안전센터,충청남도 천안시 서북구 직산읍 직산로 246,041-360-0480,,36.896529721,127.165678255
768,충청남도,차암119안전센터,충청남도 천안시 서북구 직산읍 4산단2길 32,041-360-0330,041-360-0349,36.862579183,127.116121712
769,충청남도,정산119안전센터,충청남도 청양군 정산면 서정4길 49,041-940-7362,041-940-7113,36.416618365,126.947868284
770,충청남도,청양119안전센터,충청남도 청양군 청양읍 충절로 1187,041-940-7332,041-940-7349,36.451643565,126.792455874
771,충청남도,근흥119안전센터,충청남도 태안군 근흥면 신진대교길 201-8,041-671-0402,041-673-7119,36.682627447,126.147120266
772,충청남도,안면119안전센터,충청남도 태안군 안면읍 장터로 77,041-671-0362,041-673-1192,36.515896612,126.348105140
773,충청남도,원북119안전센터,충청남도 태안군 원북면 원이로 1031,041-671-0382,041-673-2119,36.835650840,126.272390509
774,충청남도,태안119안전센터,충청남도 태안군 태안읍 동백로 100,041-671-0332,041-671-0349,36.758023217,126.286115978
775,충청남도,갈산119안전센터,충청남도 홍성군 갈산면 갈산로150번길 16,041-630-0402,041-634-3119,36.599919940,126.554204681
776,충청남도,광천119안전센터,충청남도 홍성군 광천읍 충서로 354,041-630-0382,041-642-6119,36.514047505,126.622489243
777,충청남도,구룡119안전센터,충청남도 홍성군 홍성읍 충절로 741,041-630-0334,041-630-0349,36.585018479,126.695418674
778,충청남도,내포119안전센터,충청남도 홍성군 홍북읍 의향로 133,041-630-0422,041-635-9120,36.647365377,126.677099135
779,충청남도,옥암119안전센터,충청남도 홍성군 홍성읍 충서로 1258,041-630-0362,041-631-8240,36.588824927,126.657560380
780,전라북도,효자119안전센터,전북특별자치도 전주시 완산구 거마평로 73,063-220-4272,063-289-1023,35.799183570,127.116328170
781,전라북도,서부119안전센터,전북특별자치도 전주시 완산구 우전로 228,063-220-4278,063-289-1024,35.814884224,127.102275848
782,전라북도,교동119안전센터,전북특별자치도 전주시 완산구 경기전길 183,063-220-4273,063-289-1025,35.811183302,127.151742883
783,전라북도,서신119안전센터,전북특별자치도 전주시 완산구 전룡로 138,063-220-4274,063-289-1026,35.829111229,127.127823237
784,전라북도,평화119안전센터,전북특별자치도 전주시 완산구 평화로 105,063-220-4275,063-289-1027,35.786223877,127.133832102
785,전라북도,금암119안전센터,전북특별자치도 전주시 덕진구 백제대로 611,063-274-0119,063-250-4269,35.842400907,127.136655768
786,전라북도,아중119안전센터,전북특별자치도 전주시 덕진구 진버들4길 16,063-246-3119,063-250-4297,35.836006980,127.163736117
787,전라북도,팔복119안전센터,전북특별자치도 전주시 덕진구 온고을로 430,063-212-0119,063-250-4296,35.850584034,127.082318277
788,전라북도,전미119안전센터,전북특별자치도 전주시 덕진구 과학로 144,063-253-3119,063-250-4297,35.881887051,127.128723187
789,전라북도,사정119안전센터,전북특별자치도 군산시 번영로 308 ,063-450-0228,063-289-1043,35.962847964,126.751063887
790,전라북도,금동119안전센터,전북특별자치도 군산시 군산창길 1,063-450-0274,063-289-1044,35.989806598,126.707225295
791,전라북도,항만119안전센터,전북특별자치도 군산시 외항로 436,063-450-0275,063-289-1045,35.966130267,126.621652482
792,전라북도,비응119안전센터,전북특별자치도 군산시 새만금북로 43,063-450-0279,063-289-1046,35.943771171,126.540828681
793,전라북도,지곡119안전센터,전북특별자치도 군산시 백토로 223,063-450-0273,063-289-1047,35.959103608,126.704757408
794,전라북도,내흥119안전센터,전북특별자치도 군산시 구암3.1로 147,063-450-0277,063-289-1048,35.981713687,126.735633365
795,전라북도,산북119안전센터,전북특별자치도 군산시 산북로 71-11,063-450-0276,063-289-1049,35.960279507,126.672347343
796,전라북도,대야119안전센터,전북특별자치도 군산시 대야면 대야관통로 5,063-450-0278,063-289-1050,35.942830768,126.806545907
797,전라북도,팔봉119안전센터,전북특별자치도 익산시 무왕로 1338,063-836-2119,063-839-3289,35.962274550,127.005150201
798,전라북도,신동119안전센터,전북특별자치도 익산시 인북로 397,063-855-0119,063-837-5119,35.963502465,126.962786677
799,전라북도,공단119안전센터,전북특별자치도 익산시 선화로 429,063-833-0119,063-838-8119,35.947168268,126.976891968
800,전라북도,인화119안전센터,전북특별자치도 익산시 목천로 301,063-852-0119,063-842-7119,35.928314828,126.954539406
801,전라북도,모현119안전센터,전북특별자치도 익산시 배산로 181,063-853-0119,063-855-1119,35.953727394,126.941782768
802,전라북도,함열119안전센터,전북특별자치도 익산시 함열읍 함열중앙로 133,063-861-0119,063-861-7119,36.076140258,126.971919177
803,전라북도,금마119안전센터,전북특별자치도 익산시 금마면 미륵사지로 130,063-839-3278,063-838-1191,35.997745499,127.047682826
804,전라북도,하북119안전센터,전북특별자치도 정읍시 서부산업도로 507-5,063-570-1272,063-289-1083,35.588108850,126.858644862
805,전라북도,시기119안전센터,전북특별자치도 정읍시 정읍남로 1421,063-570-1273,063-289-1084,35.557960475,126.857393436
806,전라북도,신태인119안전센터,전북특별자치도 정읍시 신태인읍 정신로 1241,063-570-1274,063-289-1085,35.691360287,126.878329360
807,전라북도,영원119안전센터,전북특별자치도 정읍시 영원면 영원로 1048,063-570-1275,063-289-1086,35.652169843,126.784203250
808,전라북도,칠보119안전센터,전북특별자치도 정읍시 칠보면 태산로 2165 ,063-570-1276,063-289-1088,35.604906741,126.993462093
809,전라북도,식정119안전센터,전북특별자치도 남원시 요천로 1965,063-626-0119,063-630-8385,35.437007108,127.416372349
810,전라북도,인월119안전센터,전북특별자치도 남원시 인월면 황산로 1828,063-636-5119,063-635-4119,35.465419527,127.602211609
811,전라북도,금지119안전센터,전북특별자치도 남원시 금지면 요천로 43,063-635-2119,063-631-2119,35.313558868,127.298551857
812,전라북도,교동119안전센터,전북특별자치도 김제시 벽성로 278,063-540-4272,063-289-1103,35.798872631,126.870010824
813,전라북도,검산119안전센터,전북특별자치도 김제시 두월로 384,063-540-4275,063-289-1107,35.805759453,126.914148903
814,전라북도,만경119안전센터,전북특별자치도 김제시 만경읍 두릉길 49,063-540-4273,063-289-1104,35.853829435,126.819219295
815,전라북도,금산119안전센터,전북특별자치도 김제시 금산면 금산사로 29,063-540-4274,063-289-1105,35.719560519,126.994635798
816,전라북도,봉동119안전센터,전북특별자치도 완주군 삼례읍 삼봉로 518,063-290-0272,063-289-1113,35.926373391,127.124156659
817,전라북도,삼례119안전센터,전북특별자치도 완주군 삼례읍 삼례역로 27,063-290-0273,063-289-1114,35.908862046,127.070534964
818,전라북도,고산119안전센터,전북특별자치도 완주군 고산면 고산로 49,063-290-0274,063-289-1115,35.975953211,127.202603222
819,전라북도,혁신119안전센터,전북특별자치도 완주군 이서면 지사제2로 12,063-290-0275,063-289-1116,35.832151055,127.023480461
820,전라북도,구이119안전센터,전북특별자치도 완주군 구이면 구이로 1475-5,063-290-0276,063-289-1118,,
821,전라북도,진안119안전센터,전북특별자치도 진안군 진안읍 쇠징계로 9,063-786-5272,063-786-5384,35.798905769,127.435502584
822,전라북도,마령119안전센터,전북특별자치도 진안군 마령면 임진로 2077-24,063-786-5283,063-432-4119,35.731795004,127.369792390
823,전라북도,무주119안전센터,전북특별자치도 무주군 무주읍 당산강변로 126,063-780-3282,063-289-1172,36.002748983,127.654912309
824,전라북도,구천동119안전센터,전북특별자치도 무주군 설천면 구천동1로 54,063-780-3273,063-289-1173,35.903230261,127.776864091
825,전라북도,장계119안전센터,전북특별자치도 장수군 장계면 육십령로 136,063-350-6272,063-289-1143,35.732242253,127.589590922
826,전라북도,장수119안전센터,전북특별자치도 장수군 장수읍 호비로 42,063-350-6285,063-289-1146,35.649928685,127.521241541
827,전라북도,임실119안전센터,전북특별자치도 임실군 임실읍 감천로 33,063-778-2272,063-289-1182,35.610620536,127.288924728
828,전라북도,순창119안전센터,전북특별자치도 순창군 순창읍 교성로 24,063-560-9272,,35.372052233,127.133916904
829,전라북도,고창119안전센터,전북특별자치도 고창군 고창읍 녹두로 1294,063-560-1272,063-289-1123,35.432464851,126.688102809
830,전라북도,무장119안전센터,전북특별자치도 고창군 무장면 무장남북로 20-5,063-560-1273,063-289-1124,35.416542672,126.561579236
831,전라북도,흥덕119안전센터,전북특별자치도 고창군 흥덕면 문화2길 21,063-560-1274,063-289-1125,35.517373358,126.703272352
832,전라북도,대산119안전센터,전북특별자치도 고창군 대산면 공음대산로 932,063-560-1275,063-289-1126,35.339911331,126.598368014
833,전라북도,부안119안전센터,전북특별자치도 부안군 행안면 변산로 86,063-580-1272,063-289-1133,35.729789250,126.711849177
834,전라북도,격포119안전센터,전북특별자치도 부안군 변산면 격포항길 64-17,063-580-1273,063-289-1134,35.620081026,126.470623829
835,전라남도,하당119안전센터,전라남도 목포시 삼향천로 110,061-280-0890,061-280-0910,34.809985549,126.430237885
836,전라남도,호남119안전센터,전라남도  목포시 영산로 165,061-280-0925,061-280-0929,34.797116101,126.387983630
837,전라남도,경동119안전센터,전라남도  목포시 유동로 42번길 1,061-280-0930,061-280-0934,34.785576347,126.380690416
838,전라남도,삼학119안전센터,전라남도 목포시 삼학로 218,061-280-0935,061-280-0939,34.790185674,126.406755992
839,전라남도,연산119안전센터,전라남도 목포시 산정공단로 64,061-280-0940,061-280-0944,34.818773638,126.377720978
840,전라남도,학동119안전센터,전라남도 여수시 망마로 20,061-680-0890,061-680-0910,34.760025046,127.665237210
841,전라남도,평여119안전센터,전라남도 여수시 여수산단로 321(평여동),061-680-0940,061-680-0944,34.811070404,127.670526178
842,전라남도,소라119안전센터,전라남도 여수시 소라면 여순로 297,061-680-0955,061-680-0959,34.831039648,127.614544510
843,전라남도,연등119안전센터,전라남도 여수시 좌수영로 162(연등동),061-680-0925,061-680-0929,34.754763635,127.726715872
844,전라남도,여서119안전센터,전라남도 여수시 문수로 131(문수동),061-680-0945,061-680-0949,34.756487671,127.708081543
845,전라남도,봉산119안전센터,전라남도 여수시 어항단지로 222-5(남산동),061-680-0935,061-680-0939,34.730215562,127.730116191
846,전라남도,돌산119안전센터,전라남도 여수시 돌산읍 강남로 34,061-680-0950,061-680-0954,34.718634015,127.750199750
847,전라남도,서면119안전센터,전라남도 순천시 서면 삼산로 281,061-750-0890,061-750-0910,34.986629197,127.504004421
848,전라남도,저전119안전센터,전라남도 순천시 중앙로 19,061-750-0925,061-750-0929,34.948076143,127.486555484
849,전라남도,왕조119안전센터,전라남도 순천시 기적의도서관1길 30,061-750-0930,061-750-0934,34.952645110,127.524762195
850,전라남도,연향119안전센터,전라남도 순천시 연향1로 26,061-750-0940,061-750-0944,34.944743894,127.517122609
851,전라남도,승주119안전센터,전라남도 순천시 승주읍 승평길 19-17,061-750-0935,061-750-0939,35.019480236,127.372862427
852,전라남도,해룡119안전센터,전라남도 순천시 해룡면 율촌산단5로 17,061-750-0950,061-750-0954,34.891728957,127.586508136
853,전라남도,신대119안전센터,전라남도 순천시 해룡면 매안로142,061-750-0955,061-750-0959,34.935974995,127.550523294
854,전라남도,경현119안전센터,전라남도 나주시 예향로 4201,061-330-0890,061-330-0940,35.027871603,126.709488640
855,전라남도,이창119안전센터,전라남도 나주시 이창택지길 6-13,061-330-0925,061-330-0929,34.994975638,126.706409537
856,전라남도,남평119안전센터,전라남도 나주시 남평읍 지석로 106,061-330-0930,061-330-0934,35.041397173,126.846024349
857,전라남도,빛가람119안전센터,전라남도 나주시 그린로 296,061-330-0935,061-330-0939,35.013106723,126.796060476
858,전라남도,중마119안전센터,전라남도 광양시 중마중앙로 109,061-798-0890,061-798-0910,34.940070868,127.697711422
859,전라남도,금호119안전센터,전라남도 광양시 희망길 12-12(금호동),061-798-0935,061-798-0939,34.936584215,127.725299642
860,전라남도,광양119안전센터,전라남도 광양시 광양읍 서변천로 175,061-798-0925,061-798-0929,,
861,전라남도,광영119안전센터,전라남도 광양시 금영로 87(광영동),061-798-0930,061-798-0934,34.958774503,127.720299918
862,전라남도,담양119안전센터,전라남도 담양군 담양읍 추성로 1232,061-380-0890,061-380-0895,35.318352711,126.973931602
863,전라남도,고서119안전센터,전라남도 고서면 창평헌로 398,061-380-0935,061-380-0939,,
864,전라남도,곡성119안전센터,전라남도 곡성군 곡성읍 학교로 7,061-357-0890,061-357-0919,35.277228485,127.289427719
865,전라남도,옥과119안전센터,전라남도 곡성군 옥과면 리문6길 29,061-357-0926,061-357-0929,35.274540802,127.137460956
866,전라남도,구례119안전센터,전라남도 구례군 구례읍 양정4길 37,061-749-0890,061-749-0910,35.202329140,127.470182699
867,전라남도,고흥119안전센터,전라남도 고흥군 풍양면 고흥로 1330,061-840-0890,061-840-0910,34.581569292,127.256037738
868,전라남도,도양119안전센터,전라남도 고흥군 도양읍 녹동신항5길 4,061-840-0925,061-840-0929,34.525925561,127.141212899
869,전라남도,과역119안전센터,전라남도 고흥군 과역면 과역로 974,061-840-0930,061-840-0934,34.683552046,127.371870238
870,전라남도,나로119안전센터,전라남도 고흥군 봉래면 나로도항길 13,061-840-0970,061-840-0934,34.463248633,127.458894924
871,전라남도,벌교119안전센터,전라남도 보성군 벌교읍 녹색로 5247,061-859-0890,061-859-0910,34.838465281,127.315488562
872,전라남도,보성119안전센터,전라남도 보성군 보성읍 송재로 235,061-859-0925,061-859-0929,34.775648644,127.084064196
873,전라남도,홍교119안전센터,전라남도 보성군 벌교읍 홍암로 116-4,061-859-0930,061-859-0934,34.846732226,127.354369816
874,전라남도,화순119안전센터,전라남도 화순군 화순읍 학포로 2750,061-379-0890,061-379-0910,35.050688965,126.971391971
875,전라남도,능주119안전센터,전라남도 화순군 능주면 지석로 1428,061-379-0925,061-379-0929,34.996016711,126.949962567
876,전라남도,동복119안전센터,전라남도 화순군 동복면 천변길 7,061-379-0930,061-379-0933,35.070079166,127.127380519
877,전라남도,장흥119안전센터,전라남도 장흥군 장흥읍 북부로 138,061-850-0890,061-850-0910,34.689079095,126.915634649
878,전라남도,정남진119안전센터,전라남도 장흥군 관산읍 관산우회로 103,061-850-0925,061-850-0929,34.564973308,126.935396572
879,전라남도,강진119안전센터,전라남도 강진군 군동면 중앙로 223,061-430-0890,061-430-0910,34.643228340,126.780926328
880,전라남도,성전119안전센터,전라남도 강진군 성전면 강진산단로1길 23,061-430-0925,061-430-0929,34.679304014,126.737662262
881,전라남도,해남119안전센터,전라남도 해남군 해남읍 교육청길 82,061-530-0890,061-530-0910,34.566261621,126.607591785
882,전라남도,땅끝119안전센터,전라남도 해남군 송지면 미야길 237-3,061-530-0940,061-530-0944,34.378083402,126.522196635
883,전라남도,삼호119안전센터,전라남도 영암군 삼호읍 나불로 192,061-460-0890,061-460-0910,34.766704013,126.439289944
884,전라남도,영암119안전센터,전라남도 영암군 영암읍 월출로 46,061-460-0925,061-460-0929,34.798581328,126.685991984
885,전라남도,신북119안전센터,전라남도 영암군 신북면 아이랑로 52,061-460-0930,061-460-0934,,
886,전라남도,무안119안전센터,전라남도 무안군 무안읍 공항로 133,061-450-0890,061-450-0910,34.995134121,126.466570278
887,전라남도,일로119안전센터,전라남도 무안군 일로읍 삼일로 493-1,061-450-0925,061-450-0929,34.851149546,126.490022762
888,전라남도,해제119안전센터,전라남도 무안군 해제면 현해로 1621,061-450-0930,061-450-0934,35.112414613,126.301070979
889,전라남도,남악119안전센터,전라남도 무안군 삼향읍 남악5로72번길81-18,061-450-0935,061-450-0939,34.811516663,126.482493420
890,전라남도,청계119안전센터,전라남도 무안군 청계면 백려동2길 14-13,061-450-0970,061-450-0939,,
891,전라남도,함평119안전센터,전라남도 함평군 대동면 학동로 386,061-338-0890,061-338-0910,35.060546697,126.538974263
892,전라남도,나산119안전센터,전라남도 함평군 나산면 함장로 2786,061-338-0925,061-338-0929,35.145430244,126.604528195
893,전라남도,영광119안전센터,전라남도 영광군 영광읍 함영로 3508,061-350-0890,061-350-0921,35.263208530,126.509074869
894,전라남도,홍농119안전센터,전라남도 영광군 홍농읍 홍농로 543,061-350-0925,061-350-0929,35.402361726,126.449017736
895,전라남도,장성119안전센터,전라남도 장성군 장성읍 단풍로 204,061-360-0890,061-360-0910,35.320237707,126.799581585
896,전라남도,삼계119안전센터,전라남도 장성군 삼계면 영장로 1632,061-360-0925,061-360-0929,35.255058892,126.667262795
897,전라남도,완도119안전센터,전라남도 완도군 농공단지길 7,061-470-0890,061-470-0910,34.338632323,126.729596849
898,전라남도,고금119안전센터,전라남도 완도군 고금면 고금동로 266,061-470-0925,061-470-0929,34.402879508,126.825305908
899,전라남도,진도119안전센터,전라남도 진도군 진도읍 진도대로 6935,061-540-0890,061-540-0921,34.472400196,126.246700504
900,전라남도,임회119안전센터,전라남도 진도군 임회면 십일시장길 34,061-540-0925,061-540-0929,34.411985770,126.192936991
901,전라남도,신안119안전센터,전라남도 신안군 암태면 승봉로 17,061-241-0890,061-241-0921,34.825508500,126.111937624
902,전라남도,지도119안전센터,전라남도 신안군 지도읍 해제지도로 1304,061-241-0925,061-241-0929,35.058868325,126.204905683
903,경상북도,압량119안전센터,경상북도 경산시 압량읍 김유신로 12,053-813-1119,053-819-6269,35.838460034,128.769801260
904,경상북도,자인119안전센터,경상북도 경산시 자인면 금학로 25-11,053-857-2119,053-851-0119,35.821467133,128.826166691
905,경상북도,중산119안전센터,경상북도 경산시 펜타힐즈4로 1,053-817-1191,053-817-1192,35.830858397,128.719579702
906,경상북도,중앙119안전센터,경상북도 경산시 장산로 143,053-813-0119,053-816-1885,35.818720419,128.740771512
907,경상북도,진량119안전센터,경상북도 경산시 진량읍 공단2로 72,053-856-0119,053-856-3940,35.872556652,128.823781262
908,경상북도,하양119안전센터,경상북도 경산시 하양읍 대경로 793,053-852-0119,053-853-1196,35.915290688,128.825731396
909,경상북도,감포119안전센터,경상북도 경주시 감포읍 동해안로 2153,054-778-0671,054-744-3119,35.799002498,129.493849199
910,경상북도,건천119안전센터,경상북도 경주시 건천읍 내서로 1065,054-778-0680,054-751-0119,35.852955151,129.100208868
911,경상북도,동부119안전센터,경상북도 경주시 중앙로 59,054-778-0610,0547-745-2119,35.845230998,129.211478741
912,경상북도,보문119안전센터,경상북도 경주시 경감로 587-8,054-778-0630,054-745-7119,35.834977913,129.287084516
913,경상북도,불국사119안전센터,경상북도 경주시 불국신택지4길 4,054-778-0620,054-771-3119,35.784040911,129.327231468
914,경상북도,안강119안전센터,경상북도 경주시 안강읍 안강중앙로 146,054-778-0650,054-761-2119,35.993239149,129.215909305
915,경상북도,외동119안전센터,경상북도 경주시 외동읍 입실로1길 78-15,054-778-0661,054-744-6119,35.716827729,129.327306811
916,경상북도,용황119안전센터,경상북도 경주시 공단로 25,054-778-0640,054-773-7119,35.875346586,129.217053456
917,경상북도,황오119안전센터,경상북도 경주시 알천남로 276,054-778-0601,054-746-2119,35.844253856,129.227769670
918,경상북도,다산119안전센터,경상북도 고령군 다산면 다산로 506,054-955-6119,054-950-8119,35.815255156,128.434972240
919,경상북도,대가야119안전센터,경상북도 고령군 대가야읍 벽화길 18,054-954-0119,054-950-8109,35.723926380,128.268492194
920,경상북도,고아119안전센터,경상북도 구미시 고아읍 선산대로 821,054-481-3119,054-440-0289,36.199611775,128.339437178
921,경상북도,공단119안전센터,경상북도 구미소방서 수출대로112,054-461-3119,054-440-0209,,
922,경상북도,봉곡119안전센터,경상북도 구미시 봉곡동로 48,054-452-2119,054-453-2119,36.154655249,128.315395133
923,경상북도,상림119안전센터,경상북도 구미시 상림로 45,054-465-9116,054-465-9133,36.090013910,128.360358403
924,경상북도,선산119안전센터,경상북도 구미시 선산읍 선산대로 1400-13,054-482-0119,054-482-4695,36.239449013,128.304996775
925,경상북도,송정119안전센터,경상북도 구미시 백산로 207,054-452-0119,054-457-4119,36.114228316,128.351033800
926,경상북도,옥계119안전센터,경상북도 구미시 산동읍 산호대로41길 4 ,054-471-5119,054-471-1194,36.138939349,128.439411163
927,경상북도,원평119안전센터,경상북도 구미시 산업로 174,054-454-6119,054-455-3119,36.128683098,128.340637481
928,경상북도,인동119안전센터,경상북도 구미시 이계북로 147,054-471-0119,054-472-4119,36.106103773,128.418380411
929,경상북도,해평119안전센터,경상북도 구미시 해평면 강동로 1663 ,054-474-4119,054-473-9078,36.198920125,128.391091704
930,경상북도,다수119안전센터,경상북도 김천시 영남대로 1246,054-420-5921,054-436-2491,36.127389531,128.072864173
931,경상북도,대광119안전센터,경상북도 김천시 공단로 152-36,054-420-5921,054-436-2492,36.148388148,128.138012951
932,경상북도,아포119안전센터,경상북도 김천시 아포읍 아포공단길 45,054-420-5941,054-439-2498,36.166559115,128.254973729
933,경상북도,양금119안전센터,경상북도 김천시 강변로 219,054-420-5901,054-436-2496,36.106783549,128.122575056
934,경상북도,율곡119안전센터,경상북도 김천시 혁신7로 46,054-420-5951,054-437-2498,36.125666442,128.176222588
935,경상북도,지례119안전센터,경북 김천시 지례면 장터길 115,054-420-5931,054-435-2498,35.990070109,128.030582111
936,경상북도,가은119안전센터,경상북도 문경시 가은읍 가은로 126,054-559-1912,054-572-0118,36.642264855,128.062726814
937,경상북도,모전119안전센터,경상북도 문경시 모전로 173,054-559-1962,054-555-0015,36.596291526,128.187944975
938,경상북도,문경119안전센터,경상북도 문경시 문경읍 새재로 501,054-559-1922,054-572-0116,36.734813976,128.102530632
939,경상북도,점촌119안전센터,경상북도 문경시 중앙로 305,054-559-1905,054-559-1909,36.610085226,128.209542874
940,경상북도,명호119안전센터,경상북도 봉화군 명호면 도천길 18-46,054-679-3520,054-674-1197,36.858168559,128.901775840
941,경상북도,봉화119안전센터,경상북도 봉화군 봉화읍 내성천3길 152,054-679-3500,,36.892218574,128.715296069
942,경상북도,춘양119안전센터,경상북도 봉화군 춘양면 소천로 22,054-679-3510,054-674-2119,36.921782964,128.920950704
943,경상북도,만산119안전센터,경상북도 상주시 경상대로 3203-11,054-530-3800,054-533-2119,36.434017650,128.151361648
944,경상북도,청리119안전센터,경상북도 상주시 청리면 마공공단로152,054-530-3820,054-531-3119,36.318529380,128.126084028
945,경상북도,함창119안전센터,경상북도 상주시 함창읍 가야로46-1,054-530-3810,054-541-5119,36.566474974,128.178407196
946,경상북도,화서119안전센터,경상북도 상주시 화서면 상현무동길5,054-530-3830,054-532-3839,36.446382732,127.948059504
947,경상북도,가천119안전센터,경상북도 성주군 가천면 가천로 3,054-930-5633,054-931-8119,35.881147783,128.170523075
948,경상북도,선남119안전센터,경상북도 성주군 선남면 도성3길 39-17,054-931-3370,054-931-5119,35.882379427,128.366732852
949,경상북도,성주119안전센터,경상북도 성주군 성주읍 주산로 193,054-933-0119,054-933-5609,35.934019830,128.304626014
950,경상북도,도산119안전센터,경상북도 안동시 도산면 퇴계로 2171,054-856-7119,054-856-7118,36.710372040,128.824552264
951,경상북도,법흥119안전센터,경상북도 안동시 육사로 301,054-854-6119,054-854-5119,36.561037022,128.737291934
952,경상북도,영양119안전센터,경북 영양군 영양읍 군민회관길 42-14,054-682-3119,054-683-3119,36.659518055,129.116475594
953,경상북도,옥동119안전센터,경상북도 안동시 광명로85,054-853-6119,054-853-5119,36.558724794,128.694255772
954,경상북도,용상119안전센터,경상북도 안동시 마들6길 27,054-821-1119,054-821-3384,36.550772666,128.761712413
955,경상북도,입암119안전센터,경상북도 영양군 입암면 입암로 153,054-682-4119,,36.598099013,129.087192219
956,경상북도,풍산119안전센터,경상북도 안동시 풍산읍 풍산태사로 1162,054-858-4119,,36.580336176,128.581905050
957,경상북도,강구119안전센터,경상북도 영덕군 강구면 강산로 38,054-730-1610,054-730-1619,36.351361293,129.374728964
958,경상북도,영덕119안전센터,경상북도 영덕군 영덕읍 경동로 8401,054-730-1600,054-730-1609,36.416708294,129.371009752
959,경상북도,영해119안전센터,경상북도 영덕군 영해면 창수영해로 481,054-730-1620,054-730-1629,36.542392954,129.395747905
960,경상북도,가흥119안전센터,경상북도 영주시 선비로 181,054-630-0441,054-630-0449,36.820846251,128.618984401
961,경상북도,문수119안전센터,경상북도 영주시 문수면 적서로 448번길 17,054-630-0401,054-630-0409,36.791683012,128.633425211
962,경상북도,풍기119안전센터,경상북도 영주시 풍기읍 기주로 159,054-630-0411,054-630-0419,36.873221778,128.519084116
963,경상북도,금호119안전센터,경상북도 영천시 금호읍 오계공단길 5,054-339-6913,054-334-7119,35.913794855,128.887563636
964,경상북도,남부119안전센터,경상북도 영천시 한방로 176,054-339-6941,054-337-1117,35.938915392,128.947113325
965,경상북도,동부119안전센터,경상북도 영천시 호국로 187,054-339-6901,054-336-1197,35.977631698,128.957856821
966,경상북도,신녕119안전센터,경상북도 영천시 신녕면 어릿골길 11,054-339-6921,054-333-2119,36.043914857,128.778888169
967,경상북도,도청119안전센터,경상북도 예천군 호명면 도청대로 19,054-653-5119,054-653-7119,,
968,경상북도,예천119안전센터,경상북도 예천군 예천읍 양궁로 61-12,054-655-0119,054-650-3609,36.648149768,128.463412218
969,경상북도,지보119안전센터,경상북도 예천군 지보면 지보로 247,054-653-3119,054-652-0119,36.538543190,128.382809354
970,경상북도,북면119안전센터,경상북도 울진군 북면 장터길 69,054-780-1450,054-783-1453,37.102732943,129.375216894
971,경상북도,온정119안전센터,경상북도 울진군 온정면 백암온천로 1315,054-780-1431,054-787-7229,36.721141830,129.347544518
972,경상북도,울진119안전센터,경상북도 울진군 울진읍 울진북로 508,054-780-1401,054-780-1409,36.993813746,129.394571588
973,경상북도,죽변119안전센터,경상북도 울진군 죽변면 하죽로 1841,054-780-1411,054-782-1774,37.054826796,129.412523714
974,경상북도,후포119안전센터,경상북도 울진군 후포면 실배길 28-1,054-780-1423,054-780-1460,36.689139454,129.445225535
975,경상북도,봉양119안전센터,경상북도 의성군 봉양면 경북대로 4741,054-834-7801,054-830-7809,36.310464850,128.598674561
976,경상북도,안계119안전센터,경상북도 의성군 안계면 안계길 100,054-861-0119,054-830-7829,36.382865439,128.441129564
977,경상북도,의성119안전센터,경상북도 의성군 의성읍 홍술로 187,054-834-7119,054-832-3119,36.358263413,128.699142802
978,경상북도,금천119안전센터,경상북도 청도군 금천면 청려로 4363,054-370-8324,054-372-6019,35.689999376,128.895211576
979,경상북도,청도119안전센터,경상북도 청도군 청도읍 중앙로 192-34,054-370-8301,054-370-8269,35.648211182,128.763125342
980,경상북도,풍각119안전센터,경상북도 청도군 풍각면 송서로 64,054-370-8311,054-372-7119,35.638874083,128.617756476
981,경상북도,진보119안전센터,경상북도 청송군 진보면 청송로 6346,054-874-5119,054-874-2459,36.521277239,129.039566478
982,경상북도,청송119안전센터,경상북도 청송군 청송읍 굿바들길 19,054-873-1119,054-873-5119,36.421933969,129.058952129
983,경상북도,가산119안전센터,경상북도 칠곡군 가산면 다부원1길 57,054-970-2836,054-973-1149,36.045855135,128.520496312
984,경상북도,금산119안전센터,경상북도 칠곡군 왜관읍 공단로 194,054-970-2821,054-971-6119,35.967777248,128.417075874
985,경상북도,동명119안전센터,경상북도 칠곡군 동명면 한티로 216,054-970-2852,054-976-0119,35.980264565,128.577257389
986,경상북도,북삼119안전센터,경상북도 칠곡군 북삼읍 안산2길 46,054-970-2819,054-974-3019,36.066825493,128.337384988
987,경상북도,석적119안전센터,경상북도 칠곡군 석적읍 유학로 140,054-970-2842,054-970-2849,36.073548179,128.423799309
988,경상북도,왜관119안전센터,경상북도 칠곡군 기산면 칠곡대로 1216,054-970-2802,054-970-2809,35.995657244,128.388057816
989,경상북도,지천119안전센터,경상북도 칠곡군 지천면 신동로 85,0549970-2872,054-974-9120,35.957408486,128.481921792
990,경상북도,구룡포119안전센터,경상북도 포항시 남구 구룡포읍 호미로 265,054-288-0951,054-288-0959,35.991030284,129.559387160
991,경상북도,연일119안전센터,경상북도 포항시 남구 연일읍 철강로 10,054-288-0991,054-282-2724,35.991619355,129.344144113
992,경상북도,오천119안전센터,경상북도 포항시 남구 오천읍 해병로 369,054-288-0941,054-288-0949,35.962773774,129.409537816
993,경상북도,울릉119안전센터,경상북도 울릉군 울릉읍 울릉순환로 415,054-288-0961,054-288-0969,37.484212944,130.898162513
994,경상북도,일월119안전센터,경상북도 포항시 남구 동해안로 5890,054-288-0872,054-288-0879,35.993383371,129.418930873
995,경상북도,제철119안전센터,경상북도 포항시 남구 철강로 360,054-288-0921,054-288-0929,35.978335696,129.378360339
996,경상북도,해도119안전센터,경상북도 포항시 남구 중앙로 118,054-288-0918,054-288-0919,36.023615107,129.368661590
997,경상북도,효자119안전센터,경상북도 포항시 남구 지곡로212번길 45,054-288-0931,054-288-0939,36.029468803,129.325538781
998,경상북도,기계119안전센터,경상북도 포항시 북구 기계면 기계로 371,054-260-2462,054-243-1119,36.084902080,129.182107101
999,경상북도,덕산119안전센터,경상북도 포항시 북구 중앙로 332,054-260-2403,054-260-2409,36.042470108,129.366150127
1000,경상북도,두호119안전센터,경상북도 포항시 북구 삼호로 505,054-260-2412,054-255-2119,36.072774520,129.397972332
1001,경상북도,장량119안전센터,경상북도 포항시 북구 법원로 158,054-260-2432,054-243-3119,36.088746117,129.387693210
1002,경상북도,청하119안전센터,경상북도 포항시 북구 청하면 청하로 267,054-260-2472,054-232-6861,36.202771329,129.342526217
1003,경상북도,흥해119안전센터,경상북도 포항시 북구 흥해읍 중성로 67,054-260-2422,054-251-0119,36.109190835,129.350481514
1004,경상남도,거제119안전센터,경남 거제시 거제면 거제남서로 3429,055-689-9400,055-689-9409,34.847263046,128.589034520
1005,경상남도,남부119안전센터,경남 거제시 남부면 저구해안길16,055-689-9420,055-689-9429,34.735045855,128.606707814
1006,경상남도,사등119안전센터,경남 거제시 사등면 덕호해안길 63,055-689-9420,055-689-9439,34.879534529,128.476433673
1007,경상남도,신현119안전센터, 경남 거제시 계룡로 52,055-689-9380,055-689-9389,34.875792620,128.626859621
1008,경상남도,연초119안전센터,경남 거제시 연초면 거제북로1,055-689-9410,055-689-9419,34.912284762,128.652638446
1009,경상남도,옥포119안전센터,경남 거제시 진목로 1,055-689-9361,055-689-9369,34.896160085,128.686162892
1010,경상남도,장승포119안전센터,경남 거제시 능포로 77,055-689-9370,055-689-9379,34.871509786,128.729100405
1011,경상남도,가조119안전센터,경남 거창군 가조면 마상3길 32,055-940-9381,055-940-9389,35.711522863,128.016510142
1012,경상남도,대평119안전센터,경남 거창군 거창읍 거함대로 3324,055-940-9361,055-940-9369,35.677573388,127.923223897
1013,경상남도,위천119안전센터,경남 거창군 위천면 원학길 321,055-940-9371,055-940-9379,35.749234218,127.832669830
1014,경상남도,거류119안전센터,경남 고성군 봉암1길 9,055-670-9341,055-670-9349,35.001174107,128.402877128
1015,경상남도,고성119안전센터,경남 고성군 남해안대로 2670,055-670-9316,055-670-9319,34.981093394,128.331066159
1016,경상남도,회화119안전센터,경남 고성군 영회로 2211,055-670-9321,055-670-9329,35.058780192,128.366582035
1017,경상남도,내외119안전센터,김해시 내외로 77,055-320-9381,055-320-9389,35.234964817,128.865501062
1018,경상남도,대동119안전센터,김해시 대동면 동남로 41번길 19,055-320-9421,055-320-9429,35.235364066,128.993209741
1019,경상남도,동상119안전센터,김해시 구지로 179,055-320-9371,055-320-9379,35.238851783,128.882867287
1020,경상남도,북부119안전센터,김해시 해반천로 166,055-320-9411,055-320-9419,35.262878890,128.867628982
1021,경상남도,삼정119안전센터,김해시 김해대로 2507,055-320-9361,055-320-9369,35.228597241,128.901397179
1022,경상남도,상동119안전센터,김해시 상동면 상동로 637,055-320-9391,055-320-9399,35.312016055,128.937868171
1023,경상남도,생림119안전센터,김해시 생림면 봉림로 106,055-320-9401,055-320-9409,35.333722458,128.847321527
1024,경상남도,율하119안전센터,김해시 율하4로 112,055-344-9421,055-344-9429,35.176363538,128.823751033
1025,경상남도,장유119안전센터,김해시 번화2로 12,055-344-9361,055-344-9369,35.190191150,128.806265480
1026,경상남도,주촌119안전센터,김해시 주촌면 주선로 29,055-344-9391,055-344-9399,35.234990925,128.845426526
1027,경상남도,진례119안전센터,김해시 진례면 서부로 730,055-344-9373,055-344-9379,35.237878302,128.755199011
1028,경상남도,진영119안전센터,김해시 진영읍 장등로 4,055-344-9381,055-344-9389,35.306686763,128.735360398
1029,경상남도,한림119안전센터,김해시 한림면 한림로 401번길 50,055-344-9413,055-344-9419,35.323250686,128.800395136
1030,경상남도,남해119안전센터,경남 남해군 남해읍 스포츠로 81,055-860-9360,055-860-9369,34.829581711,127.892610368
1031,경상남도,미조119안전센터,경남 남해군 미송로486번길 1,055-860-9330,055-860-9339,,
1032,경상남도,삼동119안전센터, 경남 남해군 삼동면 동부대로 1795,055-860-9370,055-860-9379,34.829652086,128.006132749
1033,경상남도,가곡119안전센터,경상남도 밀양시 용두로 5,055-350-9370,055-350-9379,35.478473104,128.764616875
1034,경상남도,교동119안전센터,경상남도 밀양시 밀양대공원로 66,055-350-9360,055-350-9369,35.499855317,128.758706594
1035,경상남도,무안119안전센터,경상남도 밀양시 무안면 사명로 541,055-350-9410,055-350-9419,35.473111830,128.652397465
1036,경상남도,산동119안전센터,경상남도 밀양시 산외면 단산길 2,055-350-9400,055-350-9409,35.510736380,128.839807378
1037,경상남도,삼랑진119안전센터,경상남도 밀양시 삼랑진읍 삼랑진로 16-5,055-350-9390,055-350-9399,35.383834520,128.822688997
1038,경상남도,하남119안전센터,경상남도 밀양시 하남읍 명례로 108,055-350-9380,055-350-9389,35.368428212,128.733157797
1039,경상남도,곤양119안전센터,경남 사천시 곤양면 곤북로 64,055-830-9430,055-830-9439,35.055528083,127.954289317
1040,경상남도,사남119안전센터,경남 사천시 사남면 공단2로 53,055-830-9410,055-830-9419,35.064249558,128.067468858
1041,경상남도,사천119안전센터,경남 사천시 무산로 21,055-830-9420,055-830-9429,35.087734110,128.088745200
1042,경상남도,삼천포119안전센터,경남 사천시 동금로 51,055-830-9400,055-830-9409,34.930606810,128.080812574
1043,경상남도,단성119안전센터,경남 산청군 단성면 사직단로 447-8,055-970-9321,055-970-9329,35.297814932,127.958335224
1044,경상남도,산청119안전센터,경남 산청군 산청읍 중앙로 76-7,055-970-9311,055-970-9319,35.415238736,127.883464056
1045,경상남도,물금119안전센터,양산시 물금읍 물금리 800-8,055-379-9461,055-379-9469,,
1046,경상남도,범어119안전센터,경남 양산시 황산로 719,055-379-9361,055-379-9369,35.334037335,129.010028030
1047,경상남도,상북119안전센터,경남 양산시 상북면 석계로 37,055-379-9421,055-379-9429,35.414932899,129.064861019
1048,경상남도,웅상119안전센터,경남 양산시 웅상대로 1120,055-379-9381,055-379-9389,35.397952510,129.162478814
1049,경상남도,중부119안전센터,경남 양산시 양산역6길 27,055-379-9331,055-379-9339,35.337279210,129.028978549
1050,경상남도,중앙119안전센터,경남 양산시 신기로 13,055-379-9371,055-379-9379,35.352111150,129.042436084
1051,경상남도,평산119안전센터,경남 양산시 내연4길 9,055-379-9321,055-379-9329,35.375021808,129.146828205
1052,경상남도,하북119안전센터,경남 양산시 양산대로 2255-38,055-379-9391,055-379-9399,35.463141623,129.080177592
1053,경상남도,부림119안전센터,경남 의령군 부림면 대한로 1666,055-570-9324,055-570-9329,35.463717329,128.314724668
1054,경상남도,의령119안전센터,경남 의령군 의령읍 의병로 108-17,055-570-9316,055-570-9319,35.319608459,128.248281312
1055,경상남도,정곡119안전센터,경남 의령군 정곡면 의합대로 984-12,055-570-9332,055-570-9339,35.374034155,128.327099174
1056,경상남도,금산119안전센터,경남 진주시 송백로 477,055-760-9440,055-760-9449,35.211687761,128.133882418
1057,경상남도,문산119안전센터,경남 진주시 문산읍 월아산로 979,055-760-9400,055-760-9409,35.158778483,128.163599208
1058,경상남도,상대119안전센터,경남 진주시 동진로 249,055-760-9361,055-760-9369,35.180616580,128.118291772
1059,경상남도,정촌119안전센터,경남 진주시 뿌리산단로 2,055-760-9450,055-760-9459,35.116248526,128.101292337
1060,경상남도,중앙119안전센터,경남 진주시 북장대로64번길 14,055-760-9370,055-760-9379,35.195891741,128.074566516
1061,경상남도,천전119안전센터,경남 진주시 강남로167번길 16,055-760-9380,055-760-9389,35.182852886,128.094087158
1062,경상남도,평거119안전센터,경남 진주시 순환로 565,055-760-9390,055-760-9399,35.174111950,128.058799236
1063,경상남도,남지119안전센터,경남 창녕군 남지읍 동포로 64,055-259-9371,055-259-9379,35.394942219,128.480909593
1064,경상남도,부곡119안전센터,경남 창녕군 부곡면 원앙로 184,055-259-9381,055-259-9389,35.437726734,128.588609401
1065,경상남도,영산119안전센터,경남 창녕군 영산면 영산장마로 697,055-259-9331,055-259-9339,35.459326077,128.520539577
1066,경상남도,창녕119안전센터,경남 창녕군 대지면 우포2로 1097,055-259-9361,055-259-9369,35.550363329,128.479203495
